"Code","Département","Nom","Latitude","Longitude","Altitude"
"01014002","01","ARBENT",46.278167,5.669,534
"01027003","01","BALAN_AERO",45.833,5.106667,196
"01033002","01","BELLEGARDE",46.0865,5.814167,350
"01034004","01","BELLEY",45.769333,5.688,330
"01037001","01","BENONCES",45.862333,5.484167,944
"01053001","01","BOURG EN BRESSE",46.206667,5.221667,240
"01064001","01","VERIZIEU",45.777167,5.487167,281
"01071001","01","CESSY",46.310333,6.080333,507
"01072001","01","CEYZERIAT_SAPC",46.204333,5.287667,260
"01089001","01","AMBERIEU",45.9765,5.329333,250
"01104001","01","CHEZERY",46.24,5.896667,700
"01143002","01","DIVONNE ZA",46.3415,6.139667,467
"01174001","01","GIRON",46.23,5.7725,1015
"01185001","01","HAUTEVILLE",45.966667,5.6,820
"01187001","01","LES PLANS D'HOTONNES",46.0365,5.699833,1048
"01190001","01","INNIMOND",45.7825,5.572833,880
"01200002","01","LA BALME SUR CERDON_SAPC",46.09,5.482,596
"01204001","01","LALLEYRIAT",46.152833,5.717167,850
"01204002","01","BURL",46.166667,5.706667,530
"01235001","01","MARLIEUX",46.0385,5.044333,280
"01235002","01","MARLIEUX",46.046667,5.073333,273
"01247003","01","MIJOUX",46.378833,6.019333,1002
"01247004","01","MIJOUX",46.378333,6.021667,1015
"01255002","01","MONTAGNIEU",45.794333,5.469333,336
"01262002","01","MONTLUEL",45.851667,5.056667,284
"01273001","01","NEUVILLE",46.083167,5.373833,291
"01283001","01","OYONNAX",46.271667,5.661667,535
"01301001","01","POLLIAT",46.236667,5.11,201
"01350001","01","SAINT ETIENNE DU BOIS",46.296,5.279667,243
"01367002","01","SAINT JULIEN SUR REYSSOUZE",46.403167,5.109833,189
"01384001","01","SAINT RAMBERT EN BUGEY",45.931667,5.426667,285
"01384003","01","ST RAMBERT CG01",45.950333,5.461,296
"01407001","01","SEYSSEL",45.953333,5.824,285
"01414001","01","SUTRIEU",45.916167,5.624667,878
"01416001","01","TENAY",45.923333,5.506667,390
"01419001","01","THOIRY",46.241667,5.968333,605
"01441001","01","VIEU",46.088833,5.540833,615
"01453001","01","VIRIEU-LE-PETIT",45.906833,5.718167,603
"02031001","02","AUBENTON",49.834,4.2005,177
"02037002","02","AULNOIS-SS-LAON",49.595667,3.610333,78
"02058001","02","BEAURIEUX",49.390333,3.732667,56
"02086001","02","BICHANCOURT",49.579333,3.210833,59
"02094001","02","BLESMES",49.009667,3.462667,222
"02100001","02","BONY",50.003167,3.2245,94
"02110002","02","BRAINE",49.351333,3.527,61
"02173002","02","CHAUNY",49.633833,3.197833,83
"02197001","02","CLAIRFONTAINE",49.966667,3.966667,225
"02199001","02","CLASTRES",49.742833,3.2285,75
"02219001","02","COUCY-LA-VILLE",49.550667,3.361167,171
"02220001","02","COULONGES-COHAN",49.214167,3.605833,168
"02258001","02","DAMMARD",49.146333,3.197333,146
"02298001","02","ETREUX",49.987833,3.646833,120
"02301002","02","FAUCOUCOURT",49.527333,3.462167,100
"02320001","02","ST QUENTIN",49.818333,3.206,98
"02321001","02","FONTAINE-VV MAN",49.836333,3.8795,184
"02321002","02","FONTAINE-LES-VV",49.837333,3.877833,186
"02346001","02","GIZY",49.599833,3.781,75
"02361002","02","GUISE",49.902833,3.620833,95
"02381001","02","HIRSON",49.922,4.077167,165
"02408002","02","LAON",49.57,3.596667,82
"02433001","02","LISLET",49.685833,4.0235,114
"02471001","02","MARTIGNY-COURPI",49.485667,3.693167,95
"02475001","02","MENNEVILLE",49.419833,4.0055,59
"02505001","02","MONTFAUCON",48.973333,3.441,217
"02558001","02","NOUVION-EN-T",50.007833,3.7765,182
"02575001","02","ORIGNY-STE-BENO",49.839167,3.481,75
"02577001","02","OSTEL",49.434167,3.550833,162
"02580001","02","OULCHY-LE-CHATE",49.208667,3.417,122
"02585001","02","PARCY-ET-TIGNY",49.280167,3.331,148
"02594001","02","PASSY EN VALOIS",49.165167,3.199667,141
"02614001","02","PONTRU",49.9075,3.203,80
"02617001","02","POUILLY-SUR-SERRE",49.683833,3.597333,68
"02643002","02","RESSONS LE LONG",49.3835,3.147667,133
"02652001","02","ROGNY",49.766667,3.815667,115
"02674001","02","ST-CLEMENT",49.773167,4.071667,201
"02705001","02","NIZY-LE-COMTE",49.566,4.0365,90
"02722002","02","SOISSONS",49.390667,3.310667,40
"02734001","02","TAILLEFONTAINE",49.312667,3.044,140
"02738001","02","TERGNIER",49.663833,3.320667,59
"02802001","02","VILLE-AUX-BOIS",49.659667,3.995167,143
"02814001","02","VILLERS-LES-G",49.9215,3.673833,154
"03003001","03","AINAY-LE-CHATE",46.705667,2.696,220
"03005001","03","ARCHIGNAT",46.359333,2.433667,370
"03006003","03","ARFEUILLES",46.163667,3.7355,450
"03009001","03","AUBIGNY",46.6735,3.1865,200
"03013001","03","AVERMES RUE DES GATEAUX",46.588333,3.306667,215
"03029001","03","BILLY",46.233333,3.431667,286
"03036002","03","BOURBON_SAPC",46.58,3.0495,270
"03036003","03","BOURBON-L'ARCH",46.568167,3.091833,278
"03043001","03","BROUT-VERNET",46.187167,3.267667,315
"03046001","03","BUXIERES",46.4535,3.004833,375
"03048005","03","CERILLY",46.598333,2.776667,315
"03048006","03","CERILLY",46.6185,2.8085,306
"03053003","03","CHANTELLE",46.2315,3.155333,310
"03059001","03","CHAREIL-CINTRAT_SAPC",46.275833,3.225667,286
"03060001","03","VICHY-CHARMEIL",46.166667,3.398667,249
"03061001","03","CHARMES_SAPC",46.0635,3.233667,330
"03066003","03","CHATEL-MONTAGNE",46.1155,3.683,515
"03073001","03","CHEMILLY",46.488333,3.315833,235
"03074001","03","CHEVAGNES",46.630667,3.549167,228
"03082003","03","COMMENTRY",46.295,2.746667,370
"03083002","03","CONTIGNY",46.3535,3.292333,305
"03084001","03","COSNE",46.473333,2.828333,235
"03084004","03","COSNE D'ALLIER",46.462333,2.840333,245
"03087001","03","COULEUVRE",46.679833,2.853333,308
"03100001","03","DIOU",46.541667,3.706667,220
"03103001","03","LE DONJON",46.3555,3.782667,325
"03106002","03","DURDAT-LAREQUILLE",46.251667,2.695667,500
"03107001","03","EBREUIL",46.117667,3.089167,310
"03108001","03","ECHASSIERES_SAPC",46.191167,2.957667,650
"03114001","03","FERTE-HAUTERIVE",46.375333,3.330167,226
"03125001","03","LA GUILLERMIE",45.984667,3.639833,722
"03127001","03","HERISSON",46.501167,2.757333,248
"03130002","03","ISLE-ET-BARDAIS",46.663333,2.730167,262
"03132001","03","JALIGNY",46.369333,3.591,285
"03135001","03","LALIZOLLE",46.176333,2.983667,618
"03135002","03","LALIZOLLE",46.143667,3.0205,525
"03149002","03","LOUCHY-MONTFAND",46.303667,3.241833,280
"03155001","03","LURCY-LEVIS",46.730167,2.935167,206
"03155003","03","LURCY-LEVIS SA",46.718333,2.947667,225
"03156001","03","LUSIGNY",46.588833,3.484333,249
"03159001","03","MALICORNE",46.300333,2.7775,400
"03161001","03","MARCILLAT-EN-COMBRAILLES",46.166,2.638333,494
"03162001","03","MARIGNY",46.581667,3.195833,249
"03165001","03","MAYET-DE-MONTAG",46.076833,3.684,542
"03168001","03","MEAULNE",46.610833,2.610167,218
"03180001","03","MONTBEUGNY",46.536333,3.423167,275
"03185006","03","MONTLUCON",46.365,2.596333,207
"03185007","03","MONTLUCON",46.355167,2.574667,229
"03186001","03","MONTMARAULT",46.314833,2.9525,466
"03187001","03","MONTOLDRE",46.3275,3.449167,280
"03190002","03","MOULINS ECOLE NORMALE",46.566667,3.333333,222
"03200001","03","NEUVY",46.549667,3.2855,250
"03204001","03","PARAY-SOUS-BRIAILLES",46.2835,3.337833,250
"03226001","03","SAINT DIDIER_SAPC",46.365333,3.850167,293
"03236001","03","SAINT-GERMAIN-DES-FOSSES",46.1905,3.435833,286
"03240001","03","ST-LEON",46.4025,3.685833,378
"03248001","03","ST-NICOLAS",46.0515,3.805167,1022
"03253001","03","ST-POURCAIN-BES",46.491667,3.615833,268
"03257001","03","SAINT-PRIX",46.238333,3.635,295
"03277001","03","TARGET",46.289833,3.057,410
"03285001","03","TORTEZAIS_SAPC",46.451333,2.857,256
"03310001","03","VICHY-VILLE",46.117667,3.439,255
"03311001","03","VICQ",46.1495,3.089167,346
"03316001","03","VILLENEUVE",46.665833,3.251833,223
"03321001","03","YZEURE",46.579167,3.352833,242
"04004001","04","ALLEMAGNE-EN-PROVENCE",43.781667,6.006667,450
"04006002","04","LA FOUX",44.241667,6.625,1817
"04006004","04","ALLOS",44.226667,6.631667,1370
"04006005","04","ALLOS_SAPC",44.2425,6.625333,1400
"04006400","04","La Foux d Allos",44.289833,6.561667,1900
"04008001","04","ANNOT PRE DE MONGE",43.968333,6.668333,705
"04018001","04","BANON",44.038333,5.63,780
"04019001","04","BARCELONNETTE",44.391167,6.670167,1155
"04019006","04","BARCELLONNETTE EN",44.388333,6.65,1173
"04019404","04","Pra Loup",44.36,6.584667,2100
"04022001","04","BARREME",43.957167,6.372333,743
"04023001","04","BAYONS",44.342667,6.178667,886
"04024001","04","BEAUJEU",44.234333,6.357833,1050
"04027001","04","BEVONS",44.176667,5.878333,600
"04027002","04","BEVONS",44.167,5.861833,520
"04034003","04","LA BRILLANNE",43.9235,5.8865,385
"04039001","04","CASTELLANE",43.849167,6.508,729
"04041001","04","LE CASTELLET",43.938333,5.9795,473
"04045001","04","CERESTE",43.850667,5.566,350
"04049001","04","ST AUBAN",44.062167,5.989667,458
"04051001","04","CHATEAUNEUF-MIRAVAIL",44.161833,5.726667,660
"04063001","04","CORBIERES LES AIRES",43.761667,5.75,304
"04063002","04","CORBIERES PASSAGE A NIVEAU 4",43.761667,5.75,275
"04068001","04","DAUPHIN",43.909833,5.767167,427
"04070002","04","DIGNE-LES-BAINS LES SIEYES",44.095,6.235,595
"04070003","04","DIGNE-LES-BAINS LES DOURBES",44.095,6.235,1025
"04070007","04","DIGNE",44.076667,6.186667,560
"04070008","04","DIGNE",44.083333,6.225,585
"04070009","04","DIGNE LES BAINS",44.07,6.186667,554
"04074001","04","ENTRAGES",44.016667,6.253333,600
"04076001","04","ENTREVAUX",43.950333,6.8165,475
"04079001","04","L'ESCALE BARRAGE",44.083333,6.025,435
"04088001","04","FORCALQUIER",43.962833,5.784667,535
"04088003","04","FORCALQUIER",43.933333,5.78,470
"04094001","04","GREOUX-ITCF",43.751667,5.858333,296
"04094002","04","GREOUX",43.756667,5.883333,359
"04096001","04","JAUSIERS",44.405,6.761667,1510
"04096002","04","JAUSIERS-ST ANNE",44.413667,6.725167,1240
"04096401","04","RESTEFOND-NIVOSE",44.34,6.8,2550
"04099001","04","LAMBRUISSE",44.042833,6.4455,1123
"04101001","04","LARDIERS",44.052333,5.7135,747
"04102004","04","LAUZET(LE)",44.441667,6.426667,1070
"04106001","04","LURS",43.9445,5.866333,385
"04112001","04","MANOSQUE",43.843333,5.785,380
"04112006","04","MANOSQUE",43.797,5.817167,289
"04112009","04","MANOSQUE",43.8355,5.793333,457
"04112010","04","MANOSQUE-PIMARLET",43.837167,5.801,375
"04115001","04","MEAILLES_SAPC",44.031167,6.6295,1090
"04116001","04","MEES(LES)",43.985,5.928333,375
"04123001","04","MISON",44.241667,5.888333,560
"04126001","04","MONTCLAR_SAPC",44.391833,6.333333,1197
"04134002","04","LA MOTTE DU CAIRE",44.326667,6.0305,665
"04134003","04","LA MOTTE",44.356333,6.0355,750
"04135001","04","MOUSTIERS",43.841667,6.221667,610
"04136001","04","LA MURE-ARGENS",43.977,6.520167,920
"04157001","04","PUIMOISSON",43.871167,6.168833,775
"04158001","04","QUINSON",43.701,6.0385,380
"04158002","04","QUINSON",43.7075,6.039833,400
"04160001","04","REILLANNE",43.87,5.663333,455
"04172001","04","ROUMOULES",43.7935,6.150833,665
"04173001","04","ST-ANDRE",43.968333,6.511667,890
"04173002","04","ST ANDRE ALPES",43.958333,6.511667,882
"04184001","04","ST JURS",43.900833,6.2005,867
"04192001","04","ST MICHEL L OBS",43.933333,5.713333,650
"04193002","04","ST PAUL",44.593,6.843333,1908
"04193400","04","Maljasset",44.593,6.843333,1908
"04205001","04","SEYNE",44.3515,6.3645,1210
"04205004","04","SEYNE-COL MAURE",44.320333,6.400167,1347
"04209001","04","SISTERON BEAULIEU",44.195,5.941667,480
"04209004","04","SISTERON-CHAUMI",44.215,5.941667,485
"04209005","04","SISTERON",44.2245,5.916,500
"04217001","04","THOARD",44.16,6.138333,785
"04217002","04","THOARD",44.146833,6.138833,732
"04222001","04","TURRIERS",44.399,6.1695,1020
"04226001","04","UVERNET FOURS",44.319167,6.693,1660
"04230001","04","VALENSOLE",43.8395,6.000833,600
"04230002","04","VALENSOLE",43.843333,5.986667,545
"05001400","05","ABRIES_NIVO",44.792833,6.947,2018
"05004001","05","ANCELLE",44.6245,6.209833,1354
"05007001","05","ARVIEUX LA CHALP",44.781167,6.736667,1690
"05007003","05","ARVIEUX",44.796,6.728,1825
"05023001","05","BRIANCON",44.908333,6.635,1324
"05026001","05","CEILLAC",44.671167,6.776167,1665
"05026400","05","CEILLAC_NIVO",44.671167,6.776167,1665
"05027001","05","CERVIERES",44.869333,6.7235,1614
"05031001","05","CHAMPCELLA",44.728333,6.57,1100
"05038001","05","CHATEAU-VILLE-VIEILLE",44.759333,6.809,1355
"05044400","05","PARPAILLON-NIVOSE",44.495333,6.636333,2545
"05046001","05","EMBRUN",44.571167,6.508667,873
"05055001","05","LA FAURIE",44.566667,5.750167,825
"05058001","05","FREISSINIERES",44.748333,6.503333,1320
"05061008","05","GAP",44.568333,6.091667,750
"05061009","05","GAP",44.577667,6.079833,885
"05061400","05","GAP BAYARD_NIVO",44.6215,6.084333,1240
"05063402","05","LA MEIJE-NIVOSE",45.012333,6.265167,3093
"05064001","05","CHAPELLE-EN-VALGAUDEMAR",44.81,6.195333,1270
"05064400","05","Vallompierre",44.8,6.27,2560
"05064403","05","LES PORTES EN VALGAUDEMAR",44.81,6.195333,1270
"05070003","05","LARAGNE MONTEGLIN",44.319167,5.7945,565
"05077402","05","COL AGNEL-NIVOSE",44.686,6.972167,2630
"05079001","05","LE MONETIER LES BAINS",44.9715,6.514167,1459
"05079400","05","SERRE CHE-LE MONETIER_NIVO",44.949833,6.501,2185
"05079402","05","GALIBIER-NIVOSE",45.056833,6.377167,2559
"05085001","05","MONTGENEVRE",44.9305,6.721333,1848
"05085403","05","MONTGENEVRE_NIVO",44.938167,6.7195,2134
"05090001","05","MOTTE-DALMAS",44.730833,6.066167,1100
"05090002","05","MOTTE-MOLINES",44.748167,6.122833,1250
"05093001","05","NEVACHE-EDF-03",45.0185,6.622333,1603
"05096404","05","ORCIERES-NIVOSE",44.719,6.333667,2280
"05098001","05","LES ORRES",44.508833,6.559333,1457
"05098402","05","LES ORRES_NIVO",44.481667,6.562833,1895
"05101001","05","PELVOUX",44.866833,6.486667,1270
"05101400","05","PELVOUX ST ANTOINE",44.870833,6.487167,1270
"05110001","05","PUY-ST-VINCENT",44.828833,6.492667,1388
"05110400","05","PUY ST VINCENT_NIVO",44.818,6.485833,1680
"05114002","05","REALLON ISCLE",44.608333,6.338333,1429
"05114402","05","REALLON _NIVO",44.579333,6.352333,1716
"05118002","05","RIBIERS-GRANGE",44.198167,5.881167,530
"05118003","05","RIBIERS",44.2355,5.855,520
"05119402","05","RISOUL_NIVO",44.616667,6.644167,2050
"05120002","05","RISTOLAS",44.765667,6.9845,1670
"05126001","05","ROSANS",44.3875,5.462167,625
"05127001","05","ROUSSET",44.468667,6.2685,675
"05132001","05","ST-BONNET CHAMPSAUR",44.684167,6.072833,1005
"05132002","05","ST BONNET",44.685,6.08,1015
"05133400","05","SERRE CHE-CHANTEMERLE_NIVO",44.9245,6.571333,1905
"05136002","05","ST CREPIN",44.7045,6.6,906
"05139002","05","ST ETIENNE-EN-DEVOLUY",44.6945,5.9405,1300
"05139006","05","AGNIERES-EN-DEVOLUY",44.696167,5.880833,1244
"05139400","05","St Etienne en Devoluy",44.69,5.937667,1281
"05139405","05","Super_Devoluy",44.6655,5.906667,1915
"05142001","05","ST FIRMIN",44.7825,6.035,935
"05145002","05","ST JEAN-ST-NICOLAS",44.670833,6.209833,1210
"05157001","05","ST VERAN",44.6925,6.868667,2000
"05157400","05","ST VERAN RM",44.705167,6.867833,2140
"05158001","05","LE SAIX",44.475833,5.8155,801
"05166001","05","SERRES",44.421667,5.710167,652
"05170001","05","TALLARD",44.452167,6.033333,593
"05179001","05","VEYNES",44.536333,5.840667,823
"05181002","05","VILLAR D'ARENE",45.030833,6.361667,1665
"05182001","05","VILLAR LOUBIERE",44.826833,6.146,1072
"05183001","05","VILLAR ST PANCRACE",44.880333,6.640333,1310
"05184002","05","VITROLLES",44.408667,5.951667,595
"06004002","06","ANTIBES-GAROUPE",43.564667,7.133,75
"06004003","06","ANTIBES",43.616667,7.116667,10
"06004004","06","ANTIBES-GOLF",43.579667,7.091167,13
"06004009","06","ANTIBES_SAPC",43.599167,7.111167,32
"06004012","06","ANTIBES PORT",43.585333,7.127167,3
"06004014","06","ANTIBES",43.590167,7.128333,1
"06005001","06","ASCROS",43.922,7.013667,1173
"06006001","06","ASPREMONT",43.754667,7.247667,380
"06010001","06","BAR-SUR-LOUP",43.7,6.983333,330
"06015001","06","BERRE-DES-ALPES",43.838333,7.321667,715
"06015002","06","BERRE LES ALPES-COLLA DONNA",43.824333,7.338167,500
"06016001","06","BEUIL-OBS",44.089833,6.988,1464
"06016004","06","BEUIL",44.089,6.989333,1368
"06020001","06","LA BOLLENE-VESUBIE BOURG",43.991667,7.333333,650
"06022001","06","BOUYON-OBS",43.815333,7.107167,730
"06022002","06","BOUYON",43.823,7.118167,723
"06023004","06","BREIL SUR ROYA",43.940167,7.513667,305
"06029001","06","CANNES",43.5565,6.9505,2
"06029002","06","CANNES PEPINIERE MUNICIPALE",43.558333,7.016667,59
"06029007","06","CANNES PORT",43.55,7.033333,3
"06033001","06","CARROS-OBS",43.766667,7.2,63
"06033002","06","CARROS_SAPC",43.786667,7.209167,78
"06037001","06","CAUSSOLS LA CELLE",43.743333,6.898333,1104
"06037002","06","CAUSSOLS",43.752333,6.923167,1268
"06038001","06","CHATEAUNEUF GRASSE",43.678333,6.996167,379
"06044001","06","COLLE LOUP-OBS",43.689333,7.072667,44
"06044002","06","COLLE SUR LOUP",43.691667,7.1,165
"06046001","06","COLOMARS",43.766667,7.216667,334
"06048001","06","CONTES-OBS",43.8045,7.317167,190
"06048002","06","CONTES SCLOS DE CONTES",43.815,7.316667,340
"06048003","06","CONTES",43.8,7.316667,200
"06050002","06","COURSEGOULES_SAPC",43.792,7.0485,985
"06051001","06","LA CROIX SUR ROUDOULE_SAPC",43.987667,6.873333,860
"06052001","06","CUEBRIS",43.888,7.015667,562
"06056002","06","ENTRAUNES",44.19,6.748333,1659
"06056003","06","ENTRAUNES-ESTENC",44.255833,6.753,1850
"06056400","06","Estenc",44.239167,6.753,1850
"06057001","06","L ESCARENE",43.838,7.355,380
"06059001","06","EZE-OBS",43.726,7.355,388
"06059003","06","EZE",43.738833,7.365833,704
"06069002","06","GRASSE-OBS",43.65,6.9,318
"06069008","06","GRASSE",43.653667,6.9395,183
"06070001","06","GREOLIERES",43.833333,6.966667,1380
"06071001","06","GUILLAUMES-OBS",44.090667,6.852333,788
"06071003","06","GUILLAUMES",44.1,6.85,780
"06073001","06","ISOLA",44.2,7.033333,870
"06073005","06","ISOLA 2000",44.1895,7.149,1912
"06073405","06","ISOLA",44.1895,7.149,1912
"06074005","06","LANTOSQUE_SAPC",43.972,7.307,550
"06075001","06","LEVENS-OBS",43.866667,7.216667,565
"06075006","06","LEVENS_RESERVOIRS",43.861667,7.236667,668
"06075007","06","LEVENS",43.846333,7.21,691
"06077001","06","LUCERAM-OBS",43.933333,7.366667,1420
"06077006","06","PEIRA CAVA",43.929167,7.363333,1443
"06079002","06","MANDELIEU LA NAPOULE_SAPC",43.523667,6.898667,104
"06081001","06","LE MAS",43.813667,6.809333,1525
"06083001","06","MENTON-OBS",43.784833,7.528833,12
"06083002","06","MENTP",43.783333,7.5,10
"06083005","06","MENTON",43.785833,7.488667,216
"06083006","06","MENTON-PORT",43.784,7.519333,19
"06084002","06","MOUANS SARTOUX",43.611833,6.951167,165
"06086001","06","MOULINET",43.942,7.414667,817
"06088001","06","NICE",43.648833,7.209,2
"06088003","06","NICE-COL",43.710333,7.301333,199
"06088005","06","NICE-FERIC",43.7175,7.2345,197
"06088007","06","NICE-RIMIEZ",43.738667,7.279167,238
"06088009","06","NICE-ST ROMAN",43.751667,7.216667,323
"06088011","06","NICE MONT-GROS",43.726333,7.2985,347
"06088020","06","NICE MASSENA",43.695333,7.2695,2
"06090001","06","PEGOMAS-TANNERON",43.562667,6.897,483
"06090002","06","PEGOMAS",43.602667,6.936667,109
"06091001","06","PEILLE-OBS",43.833333,7.4,630
"06091003","06","PEILLE",43.775167,7.428333,1106
"06091005","06","PEILLE-FONTBONNE",43.764167,7.425,793
"06091006","06","PEILLE COL DE LA MADONE",43.796,7.414667,848
"06092001","06","PEILLON",43.766333,7.356167,142
"06093001","06","LA PENNE",43.906333,6.933333,683
"06094001","06","PEONE-VALBERG",44.1,6.933333,1659
"06094002","06","PEONE",44.099667,6.930833,1784
"06094400","06","Valberg",44.087,6.941333,1630
"06099004","06","PUGET THENIERS_SAPC",43.956833,6.892333,449
"06102001","06","RIMPLAS_SAPC",44.067167,7.1335,1130
"06106002","06","ROQUESTERON",43.876333,7.006167,405
"06116002","06","ST AUBAN",43.847,6.727,1048
"06118001","06","ST CEZAIRE",43.645167,6.797667,474
"06118002","06","ST CEZAIRE SUR SIAGNE",43.678667,6.809,694
"06119001","06","ST-DALMAS-LE-SE",44.283333,6.85,1500
"06120001","06","TINEE-AURON",44.222667,6.937333,1605
"06120004","06","ST ETIENNE DE TINEE_SAPC",44.257667,6.921167,1150
"06120400","06","Auron",44.215333,6.9135,1910
"06121001","06","CAP FERRAT",43.683333,7.328333,138
"06125001","06","ST MARTIN D'ENTRAUNES_SAPC",44.154667,6.747,1642
"06127001","06","ST-MARTIN-DE-VESUBIE-OBS",44.074167,7.254167,994
"06127002","06","BOREON",44.116667,7.283333,1550
"06127003","06","ST MARTIN VESUBIE",44.073667,7.258167,1044
"06127006","06","SAINT MARTIN VESUBIE_SAPC",44.065667,7.255,899
"06130001","06","ST-VALLIER-OBS",43.716667,6.833333,715
"06130002","06","ST VALLIER",43.691333,6.843,708
"06135001","06","SIGALE",43.874,6.968667,629
"06136001","06","SOSPEL-OBS",43.9,7.433333,349
"06136003","06","SOSPEL",43.883333,7.45,360
"06136004","06","SOSPEL-COLLETTA",43.866667,7.433333,540
"06136005","06","SOSPEL",43.862833,7.433667,843
"06148001","06","TOURRETTES SUR LOUP",43.708167,7.055833,311
"06149001","06","LA TRINITE",43.7275,7.301,341
"06150001","06","LA TURBIE",43.741667,7.400167,495
"06151002","06","UTELLE",43.916667,7.266667,279
"06152001","06","VALBONNE",43.642167,7.037167,190
"06152002","06","VALBONNE-SOPHIA",43.623167,7.0285,238
"06153001","06","VALDEBLORE-OBS",44.066667,7.166667,1000
"06153004","06","VALDEBLORE",44.069,7.1695,1058
"06153400","06","MILLEFONTS-NIVOSE",44.118333,7.192,2430
"06154002","06","VALDEROURE",43.792333,6.7345,1105
"06157002","06","VENCE",43.716667,7.116667,321
"06158001","06","VILLARS-SUR-VAR",43.9345,7.088667,380
"06163001","06","TENDE-OBS",44.086667,7.595,792
"06163005","06","TENDE-CASTERINO",44.091833,7.5035,1554
"06163007","06","TENDE_SAPC",44.043167,7.586,636
"07005001","07","ALBA LA ROMAINE",44.539833,4.5825,223
"07005002","07","ALBA SA",44.538833,4.582833,223
"07010001","07","ANNONAY",45.246167,4.6705,336
"07011002","07","ANTRAIGUES",44.719167,4.352167,428
"07011004","07","ANTRAIGUES SA",44.712167,4.352167,600
"07012001","07","ARCENS",44.891333,4.307167,662
"07019001","07","AUBENAS/ECOLES",44.616667,4.388333,260
"07019003","07","AUBENAS PONT D'AUBENAS",44.616667,4.388333,310
"07019005","07","AUBENAS SA",44.601667,4.409833,176
"07025001","07","BARNAS RAD",44.666,4.159833,480
"07026001","07","BEAGE",44.848333,4.123333,1225
"07032002","07","BERZEME RAD",44.628333,4.566333,650
"07032003","07","BERZEME SA",44.6285,4.5665,760
"07033001","07","BESSAS",44.34,4.298667,251
"07042001","07","BOURG ST ANDEOL",44.372333,4.6415,74
"07064001","07","CHEYLARD SA",44.914833,4.4375,418
"07066001","07","CHOMERAC SA_RCE",44.6995,4.648333,216
"07066800","07","CHOMERAC SA_DOUBLE",44.697667,4.649167,212
"07068001","07","COLOMBIER JEUNE RAD",45.0155,4.671167,566
"07069001","07","COLOMBIER VIEUX SA",45.063667,4.698,408
"07075001","07","CROS GEORAND",44.780167,4.099667,1021
"07088001","07","FAUGERES",44.474667,4.136167,430
"07096001","07","GLUIRAS RAD",44.839333,4.524,760
"07099001","07","GRAS",44.429,4.5655,341
"07101001","07","GROSPIERRES",44.411333,4.300833,127
"07101002","07","GROSPIERRES SA",44.4115,4.295833,107
"07105001","07","ISSANLAS",44.773167,3.981667,1215
"07105003","07","ISSANLAS_SAPC",44.7555,3.975333,1264
"07107001","07","JAUJAC",44.632833,4.222167,550
"07110001","07","JOYEUSE",44.477667,4.230833,212
"07117001","07","LABLACHERE DROME",44.461333,4.234833,265
"07117002","07","LABLACHERE",44.480833,4.208333,295
"07119001","07","LAC ISSARLES",44.822,4.0775,1056
"07128001","07","LALOUVESC",45.117833,4.535,1090
"07129001","07","LAMASTRE",44.990667,4.5895,367
"07131001","07","LANAS SYN",44.537167,4.368167,265
"07144001","07","LOUBARESSE",44.599833,4.049333,1220
"07153001","07","MAYRES",44.667167,4.113,579
"07154003","07","MAZAN  S.A.",44.743333,4.128333,1185
"07154005","07","MAZAN ABBAYE RAD",44.733833,4.083833,1240
"07159001","07","MIRABEL SA",44.5815,4.497333,275
"07161001","07","MONTPEZAT SA",44.715667,4.207,602
"07161002","07","MONTPEZAT",44.703333,4.229667,491
"07168001","07","ORGNAC AVEN",44.288333,4.421667,230
"07172002","07","PEAUGRES RAD",45.286167,4.705833,480
"07173001","07","PEREYRES",44.789,4.255333,952
"07185001","07","PREAUX SA",45.14,4.665,525
"07186002","07","PRIVAS",44.736667,4.601667,300
"07187001","07","CROIX MILLET",44.606333,4.241333,779
"07192001","07","ROCHEPAULE SA",45.081667,4.453333,1055
"07202001","07","SABLIERES",44.546667,4.09,400
"07202002","07","SABLIERES OARA",44.533,4.0725,540
"07204005","07","ST-AGREVE",45.012167,4.401,1072
"07204008","07","ST-AGREVE RAD",44.997833,4.368,1014
"07225001","07","ST-CLAIR S.A.",45.27,4.681667,420
"07228001","07","ST-DESIRAT SA",45.260333,4.783667,275
"07230002","07","ESCRINET SA",44.715333,4.4905,737
"07232001","07","ST-ETIENNE LUGDARES",44.651333,3.9485,1022
"07240001","07","ST-GEORGES BAIN",44.860333,4.8325,112
"07261001","07","ST-LAURENT PAPE",44.817833,4.746833,112
"07262001","07","ST-LAURENT BAIN",44.576833,3.936167,803
"07262006","07","ST LAURENT BAINS",44.584333,3.948667,912
"07265001","07","ST-MARCEL ANNONAY",45.296,4.642,494
"07265003","07","ST MARCEL ANNONAY- LES FILTRES",45.286167,4.637833,445
"07273001","07","ST-MAURICE IBIE",44.501333,4.481333,238
"07279001","07","ST-MONTAN",44.441833,4.636333,130
"07284002","07","ST-PIERRE-ST-JEAN",44.449333,4.1165,315
"07286002","07","ST-PIERREVILLE",44.814333,4.485,560
"07286004","07","ST PVILLE S.A.",44.82,4.488333,640
"07294001","07","ST-SAUVEUR SA",44.296,4.26,149
"07301002","07","ST-VICTOR",45.110167,4.682333,557
"07315004","07","LA SOUCHE",44.6285,4.123667,924
"07319001","07","FRAYOL",44.551667,4.685,71
"07324003","07","TOURNON",45.05,4.841667,118
"07329001","07","VALGORGE",44.586833,4.129833,546
"07330004","07","VALLON SA",44.391833,4.403667,120
"07331001","07","VALS-LES-BAINS",44.6695,4.360667,283
"07334001","07","LES VANS",44.409167,4.127333,215
"07334003","07","LES VANS SA",44.411667,4.118,275
"07334004","07","LES VANS-SA",44.4155,4.150833,140
"07338001","07","VERNOUX",44.8995,4.652333,561
"07338005","07","VERNOUX SA",44.893333,4.626667,510
"07345001","07","VION",45.116667,4.8,129
"07347001","07","VOCANCE",45.201167,4.554333,529
"08001001","08","ACY-ROMANCE",49.500833,4.339167,99
"08025001","08","ATTIGNY",49.475,4.575,81
"08026001","08","AUBIGNY",49.778333,4.446667,191
"08046001","08","BANOGNE-RECOUVRANCE",49.571667,4.129167,130
"08052002","08","BAYONVILLE",49.38,5.011667,195
"08089003","08","BUZANCY_SAPC",49.427333,4.9645,199
"08092001","08","CAUROY",49.346833,4.465167,139
"08100001","08","CHAMPLIN",49.842,4.3315,257
"08101002","08","LA CHAPELLE",49.766667,5.041667,396
"08105001","08","MEZIERES",49.759667,4.716,140
"08105003","08","MONTCY-ST-PIER",49.773667,4.739667,145
"08105005","08","CHARLEVILLE-MEZ",49.782833,4.643167,145
"08107001","08","CHATEAU-PORCIEN",49.511,4.2155,67
"08109002","08","CHATEL-CHEHERY",49.283833,4.9545,165
"08116001","08","LE CHESNE",49.510333,4.766167,168
"08145001","08","DOUZY",49.658,5.039833,153
"08185001","08","FUMAY",49.988333,4.707167,133
"08190001","08","GIVET",50.143833,4.842833,165
"08207001","08","HAM-SUR-MEUSE",50.116,4.7795,109
"08215002","08","HARRICOURT",49.434,4.9305,174
"08218001","08","HAUTES-RIVIERES",49.866667,4.853333,186
"08218002","08","HAUTES-RIVIERES",49.883333,4.841667,431
"08239001","08","JUNIVILLE",49.397333,4.371667,90
"08239002","08","JUNIVILLE",49.391667,4.395,98
"08244001","08","LAMETZ_SAPC",49.536667,4.689667,165
"08248002","08","LAUNOIS-SUR-VENCE_SAPC",49.671833,4.534667,218
"08254002","08","LIART_SAPC",49.7655,4.340333,240
"08255001","08","LINAY",49.616833,5.216833,177
"08256001","08","LIRY",49.308333,4.661667,130
"08276002","08","MARGUT",49.590833,5.2815,180
"08282002","08","MAUBERTFONTAINE",49.866667,4.433333,275
"08291001","08","MOGUES",49.65,5.283333,292
"08296002","08","MONTCHEUTIN_SAPC",49.287333,4.809667,142
"08302003","08","MONTHERME",49.916667,4.766667,461
"08303001","08","MONTHOIS",49.316833,4.711833,126
"08311001","08","MOUZON",49.606667,5.075,158
"08324001","08","NEUVIZY - MAN",49.628333,4.535,212
"08324002","08","NEUVIZY",49.628333,4.533333,212
"08353001","08","RANCENNES",50.118833,4.813167,162
"08354001","08","RAUCOURT - MAN",49.605,4.96,200
"08354002","08","RAUCOURT",49.605,4.963333,200
"08355001","08","REGNIOWEZ SA",49.913333,4.428333,350
"08362002","08","RETHEL - MAN",49.5025,4.363667,71
"08362003","08","RETHEL",49.516667,4.373333,115
"08363001","08","REVIN",49.9325,4.626667,130
"08366001","08","ROCQUIGNY - MAN",49.704333,4.217833,220
"08366002","08","ROCQUIGNY",49.716667,4.236667,250
"08367001","08","ROCROI - MAN",49.921667,4.52,386
"08367002","08","ROCROI",49.918667,4.53,382
"08369001","08","LA ROMAGNE",49.678333,4.321667,175
"08374001","08","LA SABOTTERIE",49.55,4.665,195
"08381002","08","ST GERMAINMONT",49.5,4.133333,80
"08401001","08","SAULCES-CHAMPENOISES",49.423833,4.4925,147
"08419001","08","SIGNY-L'ABBAYE",49.686,4.418833,180
"08420002","08","SIGNY-LE-PETIT_SAPC",49.9135,4.288167,309
"08424001","08","SOMMAUTHE",49.495,4.985,286
"08439002","08","TANNAY",49.516667,4.81,165
"08448001","08","THILAY",49.875,4.805,490
"08458001","08","TOURTERON",49.54,4.62,158
"08461001","08","VANDY",49.434167,4.705667,112
"08490001","08","VOUZIERS",49.404167,4.704,96
"08490002","08","VOUZIERS",49.396667,4.698333,122
"09022001","09","ARVIGNA",43.057833,1.729167,370
"09023002","09","ASCOU LAVAIL",42.723833,1.895167,1100
"09023400","09","Ascou Pailheres",42.730333,1.954,1500
"09024004","09","ASTON",42.724167,1.691,1781
"09027001","09","AUGIREIN",42.930167,0.92,655
"09029001","09","AULUS-LES-BAINS",42.793833,1.333833,733
"09029400","09","Guzet",42.778833,1.300833,1384
"09029402","09","Aulus les Bains",42.793833,1.333833,733
"09032001","09","AX LES THERMES",42.72,1.838333,714
"09032401","09","Le Saquet",42.7,1.82,2000
"09032402","09","Ax Bonascre",42.692333,1.7965,1715
"09047001","09","BELESTA",42.903833,1.936667,490
"09067001","09","BRIE",43.202667,1.524333,265
"09070400","09","Beille",42.724,1.690667,1789
"09071001","09","CADARCET",43.012667,1.501333,510
"09078002","09","CARCANIERES",42.695333,2.122167,1360
"09079002","09","CARLA BAYLE PAT",43.143333,1.375,387
"09099001","09","COS",42.970167,1.5645,519
"09122002","09","FOIX MONTGAUZY",42.96,1.606667,425
"09135400","09","Goulier",42.7395,1.513333,1468
"09139001","09","HOSPITALET",42.588667,1.796333,1425
"09139400","09","L Hospitalet",42.590167,1.800333,1420
"09140001","09","LE CHIOULA",42.755,1.863333,1600
"09161003","09","LERAN",42.990333,1.919167,391
"09181003","09","LE MAS D AZIL",43.0735,1.357667,293
"09182003","09","MASSAT GEND",42.891,1.347833,636
"09185002","09","MAZERES PATAC",43.226667,1.663333,230
"09193400","09","Mijanes",42.7265,2.017,1530
"09199002","09","MONTAUT",43.192167,1.6435,295
"09206001","09","MONTFERRIER",42.891833,1.781167,760
"09206002","09","MONT D'OLMES",42.843667,1.744333,1500
"09206400","09","Mont d Olmes",42.843833,1.744167,1472
"09223001","09","OUST",42.877,1.213333,495
"09225004","09","PAMIERS LYCAGRI",43.127,1.6455,294
"09225005","09","PAMIERS VILLE",43.118833,1.607,283
"09231400","09","Etang de L Hers",42.807167,1.381167,1280
"09250001","09","LES CASCADES",42.963667,1.748,530
"09283002","09","SAVIGNAC",42.7285,1.818833,680
"09285400","09","PORT D'AULA-NIVOSE",42.77,1.114333,2140
"09289001","09","ST GIRONS",43.005333,1.106833,414
"09290001","09","SENTEIN",42.873333,0.953333,735
"09290004","09","EYLIE D'EN HAUT",42.835167,0.9345,1010
"09290400","09","SENTEIN EYLIE HAUT",42.835333,0.934667,1000
"09299003","09","SOUEIX",42.882667,1.207167,515
"09328001","09","VERDUN",42.791667,1.69,550
"09334004","09","VICDESSOS",42.771667,1.488167,750
"10002001","10","AILLEVILLE_SAPC",48.254167,4.685667,195
"10030001","10","TROYES-BARBEREY",48.324667,4.02,112
"10042001","10","BERULLE",48.179,3.663333,146
"10057001","10","BOUY-SUR-ORVIN",48.439833,3.504833,102
"10070001","10","CELLES-SUR-OURCE",48.0675,4.411333,275
"10099002","10","CHESSY-LES-PRES_SAPC",48.0255,3.915,119
"10102001","10","COLOMBE-LA-FOSSE-CIVC",48.261667,4.779667,252
"10119001","10","CUNFIN_SAPC",48.0365,4.6785,315
"10130001","10","DOSNON",48.609167,4.224667,115
"10141001","10","ESSOYES-CIVC",48.039167,4.493833,280
"10202001","10","LOGES-MARGUERON",48.082833,4.098667,150
"10228002","10","MATHAUX-ETAPE",48.353167,4.472333,145
"10238001","10","MESNIL-ST-PERE",48.244833,4.322167,142
"10241001","10","METZ-ROBERT_SAPC",48.0745,4.101167,140
"10255002","10","MONTREUIL",48.217333,4.275833,150
"10261001","10","MUSSY-SUR-SEINE",47.983833,4.495833,193
"10317001","10","LES-RICEYS",47.997167,4.372,185
"10317002","10","LES-RICEYS-CIVC",47.981333,4.3305,274
"10323001","10","ROMILLY",48.503333,3.7495,77
"10350001","10","ST-MARDS",48.169833,3.789,227
"10372001","10","SOULAINES",48.399333,4.671333,138
"10438001","10","VITRY-LE-CROISE-CIVC",48.144333,4.554167,237
"11004001","11","ALAIGNE",43.1125,2.098333,293
"11012001","11","ARGELIERS",43.308167,2.911667,31
"11015001","11","ARQUES",42.951833,2.374833,350
"11016003","11","ARQUETTES-EN-VAL",43.100833,2.503333,240
"11021002","11","AXAT-GARE",42.803333,2.23,415
"11028001","11","BELCAIRE",42.8195,1.968167,980
"11033002","11","BELPECH",43.178333,1.78,260
"11033003","11","BELPECH",43.200333,1.748333,235
"11044001","11","BOUISSE",42.986667,2.451667,640
"11049001","11","BRAM",43.241667,2.126167,134
"11055001","11","BUGARACH",42.878333,2.348333,452
"11056001","11","CABRESPINE",43.358333,2.463333,310
"11068001","11","CAPENDU",43.187333,2.5505,79
"11069001","11","CARCASSONNE",43.215333,2.2955,128
"11075001","11","CASTANS",43.404667,2.494333,650
"11076001","11","CASTELNAUDARY",43.305333,1.949167,160
"11081003","11","CAUNES-MINERVOIS",43.334333,2.481,371
"11099001","11","CONQUES-SUR-ORBIEL",43.279667,2.399167,120
"11103001","11","COUIZA",42.943333,2.256667,222
"11110001","11","COUSTOUGE",43.048333,2.743667,185
"11113001","11","CUCUGNAN",42.848333,2.6,299
"11115001","11","CUXAC-CABARDES",43.351167,2.272167,499
"11124001","11","DURBAN CORBIERE",42.995,2.816667,120
"11124003","11","DURBAN-CORBIERES",42.993167,2.819167,120
"11136001","11","FANJEAUX_SAPC",43.202,2.07,182
"11140001","11","FERRALS-LES-CORBIERES",43.147167,2.7325,65
"11144001","11","FITOU",42.894667,2.995833,9
"11145001","11","FLEURY ST PIERRE",43.183333,3.183333,5
"11145002","11","FLEURY",43.232667,3.138167,19
"11149001","11","FONTERS DU RAZE",43.23,1.936667,370
"11155001","11","FOURTOU",42.927333,2.429833,643
"11159002","11","RIBOUISSE",43.182833,1.895833,302
"11168001","11","GRANES",42.909167,2.2505,420
"11169001","11","GREFFEIL",43.078333,2.38,290
"11177001","11","JOUCOU",42.8265,2.0865,600
"11179001","11","LABASTIDE EN VA",43.075,2.471667,206
"11181002","11","LABECEDE LAURAGAIS_SAPC",43.3895,2.022167,408
"11185001","11","LAGRASSE",43.0915,2.621833,130
"11189001","11","LAPRADE",43.441667,2.260333,830
"11198001","11","LAURE-MINERVOIS",43.268667,2.518167,80
"11202001","11","LEUCATE",42.917333,3.059667,42
"11203001","11","LEZIGNAN-CORBIE",43.236667,2.758333,56
"11203002","11","LEZIGNAN-CORBIERES",43.2,2.76,50
"11203004","11","LEZIGNAN-CORBIERES",43.173,2.728833,60
"11206003","11","LIMOUX",43.046,2.201167,230
"11221004","11","LES MARTYS",43.4085,2.292333,760
"11230001","11","MERIAL",42.786667,1.978333,920
"11242001","11","MONTCLAR",43.135833,2.248,220
"11243001","11","MONTFERRAND",43.3535,1.821667,190
"11253001","11","MONTOLIEU",43.312667,2.2405,280
"11260002","11","MOUTHOUMET",42.9595,2.529,538
"11262001","11","NARBONNE",43.183333,3.013333,13
"11262002","11","NARBONNE-EGASSIAIRAL",43.179167,3.019167,5
"11262005","11","NARBONNE",43.150333,2.955833,110
"11266001","11","PORT-LA-NOUVELLE",43.0145,3.0525,0
"11271001","11","PALAIRAC",42.957333,2.6615,364
"11295001","11","PORTEL-DES-CORBIERES",43.041,2.9435,29
"11296001","11","POUZOLS-MINERVO",43.288333,2.828333,80
"11301001","11","PUICHERIC",43.226667,2.631667,57
"11303001","11","PUIVERT",42.883333,2.045,610
"11304001","11","QUILLAN",42.873333,2.181667,282
"11321003","11","ROQUEFORT-DE-SAULT",42.745167,2.193,1017
"11329001","11","ROUVENAC",42.938333,2.148333,310
"11332001","11","ST ANDRE DE ROQ",43.111667,2.835,67
"11333001","11","ST BENOIT",43.004,2.0455,601
"11352001","11","ST LOUIS-ET-PARAHOU",42.850333,2.3405,684
"11367001","11","SAISSAC",43.393333,2.165,630
"11371001","11","SALLES-SUR-L'HERS",43.295333,1.783667,210
"11388001","11","TERMES",43.000667,2.563167,330
"11401001","11","TUCHAN",42.888333,2.723333,160
"11404001","11","VENTENAC-CABARDES",43.264833,2.302333,123
"11409001","11","VIGNEVIEILLE",43.005,2.523333,240
"11412001","11","VILLARDEBELLE_SAPC",43.014833,2.4005,593
"11420001","11","VILLEBAZY-RABAS",43.05,2.333333,300
"11420002","11","VILLEBAZY",43.066667,2.32,200
"11427001","11","VILLELONGUE-D'AUDE",43.053333,2.094167,320
"12005001","12","ALPUECH",44.756,2.868167,1107
"12011001","12","ARVIEU",44.167667,2.618833,733
"12014001","12","AURELLE-VERLAC_SAPC",44.5335,3.007667,1076
"12021001","12","BASTIDE EVEQUE",44.341333,2.139167,500
"12023001","12","BASTIDE SOLAGES",43.951167,2.503,230
"12024001","12","BELCASTEL",44.387333,2.339167,444
"12025001","12","BELMONT/RANCE",43.823167,2.7535,500
"12025002","12","BELMONT LIMOU",43.822333,2.728,410
"12026002","12","BERTHOLENE",44.384167,2.761833,665
"12026003","12","SA BERTHOLENE",44.383333,2.805,692
"12036001","12","BROMMAT",44.778,2.689667,732
"12039001","12","BRUSQUE_SAPC",43.7495,2.938667,858
"12050001","12","CANET-DE-SALARS_SAPC",44.2335,2.737167,860
"12051001","12","CANTOIN",44.834667,2.814,930
"12063001","12","LA CAVALERIE",44.005667,3.160667,790
"12063003","12","MILLAU-LARZAC_SAPC",43.987,3.181833,794
"12065001","12","CENTRES",44.154667,2.425667,500
"12068001","12","COLOMBIES",44.357833,2.317167,647
"12076002","12","SA CONQUES",44.603333,2.405,545
"12077002","12","CORNUS",43.922333,3.192167,718
"12089001","12","DECAZEVILLE",44.558333,2.255,215
"12089002","12","DECAZEVILLE",44.575167,2.2405,325
"12092001","12","DURENQUE_SAPC",44.111833,2.6445,812
"12094002","12","ENTRAYGUES SUR",44.635833,2.559667,264
"12096001","12","ESPALION",44.5095,2.768667,359
"12100001","12","FIRMI",44.547667,2.311833,320
"12102001","12","FLAVIN",44.279333,2.606333,657
"12116001","12","HUPARLAC",44.713333,2.762,860
"12117002","12","LACALM",44.773333,2.879833,1120
"12119001","12","LAGUIOLE",44.682667,2.852833,1030
"12120001","12","LAISSAC",44.389167,2.828333,599
"12121001","12","LANUEJOULS",44.430667,2.171333,511
"12145001","12","MILLAU",44.1185,3.0195,712
"12145011","12","MILLAU-BARRY",44.1,3.05,409
"12148001","12","MONTBAZENS",44.484,2.220167,400
"12150001","12","MONTEILS",44.265667,1.991667,268
"12154002","12","MONTLAUR-PRIVAT",43.877333,2.836167,345
"12154003","12","MONTLAUR",43.891667,2.836333,374
"12155001","12","MONTPAON FONDAM",43.888333,3.15,510
"12156001","12","MONTPEYROUX",44.613333,2.805,868
"12168002","12","NANT CASTELNAU",44.013333,3.32,490
"12174001","12","OLEMPS",44.343167,2.526,590
"12179001","12","PEUX-ET-COUFFOULEUX_SAPC",43.761833,2.867167,830
"12189001","12","PRADINAS_SAPC",44.242167,2.255833,564
"12194001","12","QUINS",44.239333,2.383,607
"12194002","12","SA QUINS",44.238333,2.383333,632
"12197001","12","REQUISTA",44.026,2.526333,550
"12197002","12","REQUISTA COMBEC",44.072667,2.555833,600
"12198001","12","RIEUPEYROUX",44.33,2.25,685
"12202003","12","RODEZ",44.353333,2.57,608
"12208001","12","ST AFFRIQUE",43.9585,2.856167,365
"12208004","12","SA ST AFFRIQUE",43.966667,2.85,365
"12212001","12","ST BEAULIZE",43.896833,3.109833,525
"12213001","12","ST BEAUZELY",44.165,2.943333,800
"12214005","12","SA AUBRAC",44.631333,2.985167,1393
"12216001","12","ST-COME-D'OLT",44.514667,2.827833,380
"12224001","12","ST-GENIEZ-D'OLT",44.463667,2.967667,420
"12230001","12","ST JEAN DELNOUS",44.048667,2.504667,517
"12247001","12","ST SATURNIN",44.422167,3.021833,640
"12248001","12","ST SERNIN/RANCE",43.884167,2.611,341
"12253001","12","SALLES CURAN",44.151833,2.866167,959
"12254001","12","RODEZ-AVEYRON",44.410333,2.4825,578
"12258001","12","LA SALVETAT PEY",44.241167,2.188333,550
"12266002","12","SEGUR",44.2895,2.820333,879
"12270002","12","SEVERAC LE CHAT",44.318333,3.067833,690
"12271001","12","SA GREZES",44.366667,2.856667,630
"12294002","12","VEZINS DE LEVEZ",44.277,2.949,920
"12296001","12","VIALA DU TARN",44.071667,2.806667,295
"12298001","12","VILLECOMTAL",44.530667,2.572,318
"12300003","12","VILLEFRANCH IFIP",44.363333,1.998333,335
"12300004","12","VILLEFRANCHE-DE-ROUERGUE",44.371833,2.023667,330
"12301001","12","VILLENEUVE",44.471333,2.032833,353
"13001002","13","AIX-PUYRICARD",43.593333,5.413333,314
"13001003","13","AIX-EN-PROVENCE",43.533333,5.451333,217
"13001004","13","AIX-EN-PROVENCE-MT-PERRIN",43.520833,5.4405,205
"13001006","13","AIX-LES MILLES",43.504667,5.365667,106
"13001008","13","AIX-EN-PROVENCE",43.522667,5.435667,177
"13001009","13","AIX EN PROVENCE",43.5295,5.4245,173
"13001013","13","AIX-LA-MOLLE",43.531333,5.442667,215
"13004001","13","ARLES-VILLE",43.686667,4.611667,5
"13004002","13","ARLES-SALIN",43.408333,4.72,1
"13004003","13","ARLES",43.51,4.693833,1
"13004008","13","ARLES-ROUSTY",43.623333,4.528333,5
"13004017","13","ARLES-MAS-REY",43.693333,4.568333,10
"13005001","13","AUBAGNE",43.29,5.578333,131
"13005003","13","AUBAGNE",43.307333,5.601167,130
"13005004","13","AUBAGNE-DDE",43.291667,5.556667,105
"13010001","13","BARBENTANE",43.916667,4.743333,15
"13014001","13","BERRE",43.471667,5.148333,1
"13014002","13","BERRE",43.48,5.168333,2
"13019001","13","CABRIES",43.463833,5.334167,163
"13021001","13","CARRY-LE-ROUET",43.333333,5.151667,35
"13022001","13","CASSIS-POMPIERS",43.218333,5.533333,67
"13022003","13","CASSIS",43.222167,5.503167,212
"13026001","13","CHATEUNEUF-LES",43.393333,5.103333,47
"13027001","13","CHATEAURENARD",43.883333,4.848333,30
"13028001","13","BEC DE L AIGLE",43.174667,5.574167,316
"13028002","13","LA CIOTAT LA GUILLAUMIERE",43.176667,5.603333,40
"13029001","13","CORNILLON-CONFOUX",43.563333,5.073333,110
"13030001","13","CUGES-LES-PINS",43.274,5.700167,184
"13030002","13","STE BAUME",43.316667,5.708333,1025
"13031002","13","LA DESTROUSSE_SAPC",43.386667,5.601,201
"13035001","13","EYGUIERES",43.688333,5.033333,89
"13035002","13","EYGUIERES",43.726333,5.008,160
"13036003","13","EYRAGUES",43.847167,4.834833,17
"13037001","13","LA FARE LES OLIVIERS",43.548333,5.2,53
"13041001","13","GARDANNE",43.428333,5.47,283
"13042001","13","GEMENOS",43.288333,5.618333,130
"13046001","13","GREASQUE LA MINE",43.431667,5.543333,318
"13047001","13","ISTRES",43.522667,4.9275,23
"13050001","13","LAMBESC",43.668667,5.2865,260
"13053002","13","MALLEMORT",43.715,5.206667,128
"13054001","13","MARIGNANE",43.437667,5.216,9
"13055001","13","MARSEILLE-OBS",43.305667,5.394333,75
"13055004","13","POMEGUES",43.263333,5.29,63
"13055005","13","MARSEILLE-ST BARNABE",43.309333,5.426167,137
"13055006","13","MARSEILLE-STE MARTHE",43.3385,5.4045,121
"13055018","13","MARSEILLE-CROISETTE",43.210833,5.355667,116
"13055020","13","MARSEILLE-OLIVES",43.323333,5.456667,143
"13055021","13","MARSEILLE-ACCOULES",43.298333,5.368333,31
"13055025","13","MARSEILLE",43.255667,5.38,5
"13055029","13","MARSEILLE",43.310667,5.479167,192
"13056002","13","CAP COURONNE",43.331667,5.053333,27
"13056004","13","MARTIGUES",43.417167,5.042833,101
"13059001","13","MEYRARGUES",43.643333,5.531667,210
"13059003","13","MEYRARGUES",43.641667,5.513333,210
"13060001","13","MEYREUIL",43.486667,5.493333,275
"13060002","13","MEYREUIL",43.486667,5.526667,176
"13062001","13","MIMET AGGLOMERATION",43.413333,5.505,500
"13062002","13","MIMET",43.4185,5.499667,416
"13069001","13","PELISSANNE AGGLOMERATION",43.631667,5.153333,84
"13071001","13","LES PENNES-MIRABEAU",43.408333,5.321667,80
"13074002","13","PEYROLLES_FORET",43.623333,5.586667,295
"13074003","13","PEYROLLES EN PROVENCE",43.656667,5.607,217
"13077001","13","PORT-DE-BOUC-SJ",43.432167,5.0025,18
"13077003","13","PORT-DE-BOUC-TP",43.397667,4.981833,2
"13078001","13","PORT-ST-LOUIS-DU-RHONE-MAS",43.471667,4.786667,2
"13078004","13","PORT-ST-LOUIS-DU-RHONE-GARAGE",43.393333,4.813333,1
"13080001","13","LE-PUY-STE-REPA",43.639,5.4435,277
"13082001","13","ROGNES",43.706667,5.358333,186
"13082003","13","ROGNES AGGLOMERATION",43.665,5.35,323
"13085001","13","ROQUEFORT-LA-BEDOULE",43.2515,5.625,354
"13086001","13","ROQUEVAIRE",43.366667,5.611667,175
"13086004","13","ROQUEVAIRE LA DORGALE",43.341667,5.601667,145
"13087001","13","ROUSSET",43.478333,5.636667,235
"13089001","13","ST-ANDIOL",43.828333,4.971667,54
"13091001","13","ST CANNAT",43.591333,5.251333,198
"13091002","13","ST CANNAT",43.6045,5.317667,249
"13092001","13","ST CHAMAS",43.5495,5.0395,10
"13096001","13","STES MARIES-DDE",43.457167,4.427833,2
"13096002","13","STES-MARIES-DE-LA-MER",43.448333,4.423333,1
"13097002","13","ST-MARTIN-CRAU",43.596667,4.851667,21
"13097004","13","ST-MARTIN-LE LUQUIER",43.628333,4.956667,50
"13100001","13","SAINT-REMY-DE-PROVENCE CANAL",43.783333,4.831667,58
"13100002","13","ST-REMY-DE-PROVENCE",43.791167,4.835,49
"13100003","13","ST-REMY-DE-PROVENCE GRAZILLE",43.788333,4.83,48
"13103001","13","SALON DE PROVENCE",43.612833,5.108,58
"13103002","13","SALON-LE-MERLE",43.643333,5.018333,65
"13103003","13","SALON-DE-PROVENCE",43.641667,5.095,78
"13106001","13","SEPTEMES-LES-VALLONS",43.398333,5.368333,209
"13108001","13","TARASCON-PC",43.811667,4.665,9
"13108004","13","TARASCON",43.829833,4.640167,15
"13110001","13","TRETS CARREAU DE LA MINE",43.448333,5.685,249
"13110002","13","TRETS-PC",43.451667,5.691667,240
"13110003","13","TRETS",43.445333,5.698667,264
"13111001","13","VAUVENARGUES LE GRAND SAMBUC",43.555,5.6,615
"13111002","13","VAUVENARGUES",43.551,5.68,565
"13116001","13","VERQUIERES",43.829167,4.919,47
"14016001","14","ANNEBAULT",49.253333,0.058333,138
"14020002","14","ARGENCES",49.140333,-0.155,53
"14047001","14","BAYEUX",49.275,-0.703333,50
"14047002","14","BAYEUX",49.274833,-0.712333,60
"14055002","14","BEAUMONT EN A.",49.256167,0.090833,140
"14066001","14","BERNIERES",49.334,-0.430667,2
"14096001","14","BREMOY",48.991167,-0.780833,240
"14118001","14","CAEN LA MALADRERIE",49.183333,-0.36,40
"14118003","14","CAEN",49.183333,-0.36,24
"14126001","14","CAMBREMER",49.1455,0.041833,125
"14129001","14","CAMPEAUX LA LANDE",48.953333,-0.93,160
"14137001","14","CAEN-CARPIQUET",49.18,-0.456167,67
"14143001","14","CAUMONT-L'EVENTE AGGLOMERATION",49.091667,-0.8,244
"14143002","14","CAUMONT L EVENT",49.083333,-0.8,240
"14147001","14","CERNAY",49.020333,0.323333,182
"14174001","14","CONDE-SUR-NOIREAU LE MESNIL",48.853333,-0.55,90
"14216001","14","DAMBLAINVILLE",48.928,-0.148667,155
"14220001","14","DEAUVILLE",49.355,0.071667,5
"14220002","14","DEAUVILLE HIPPO",49.352833,0.073333,2
"14226001","14","DONNAY",48.955,-0.416667,225
"14228001","14","DOUVRES LA DELI",49.29,-0.383333,23
"14229001","14","DOZULE",49.231667,-0.0475,29
"14239001","14","ENGLESQUEVILLE",49.3875,-0.956667,38
"14258002","14","FALAISE",48.89,-0.203333,158
"14277001","14","FONTENAY-LE-MARMION",49.091667,-0.348333,85
"14277003","14","FONTENAY LE MAR",49.088333,-0.352333,58
"14289002","14","FRESNE LA MERE",48.896667,-0.115,74
"14291002","14","FRESNEY LE VIEU",49.011667,-0.379333,175
"14296001","14","LEGAST_SAPC",48.794667,-1.037167,336
"14334002","14","L'HOTELLERIE",49.1385,0.404167,161
"14336001","14","HOTTOT-LES-BAGUES LA RIVIERE",49.151667,-0.646667,70
"14352001","14","LANDELLES-ET-COUPIGNY",48.886667,-0.995,100
"14357001","14","LASSY",48.913,-0.671167,163
"14357002","14","LASSY_SAPC",48.9265,-0.6925,223
"14362001","14","LESSARD",49.071,0.1545,150
"14366001","14","LISIEUX HOSP",49.145,0.226667,23
"14366002","14","LISIEUX_SAPC",49.165,0.227,62
"14369001","14","LITTEAU",49.143333,-0.911333,125
"14370001","14","LE MOLAY LITTRY",49.25,-0.883333,25
"14372001","14","LIVRY",49.099167,-0.7665,194
"14377001","14","LONGUES-SUR-MER",49.335,-0.695,66
"14384001","14","LUC SUR MER",49.315,-0.358333,10
"14403001","14","MAROLLES",49.134333,0.364833,155
"14431002","14","MEZIDON-CANON",49.0885,-0.077333,35
"14446001","14","MONTIGNY",49.045833,-0.530167,151
"14488001","14","OUISTREHAM",49.266667,-0.25,10
"14501002","14","PIERREFITTE CIN_SAPC",48.891,-0.385833,185
"14515001","14","PORT EN BESSIN",49.349167,-0.772667,68
"14550001","14","RUMESNIL LE BOCAGE",49.185,0.026667,40
"14574001","14","SAINT DESIR DE",49.15,0.2,160
"14575001","14","ST ETIENNE LA T",49.280333,0.1025,60
"14577001","14","SAINT-GABRIEL-BRECY LE PRIEURE",49.275,-0.563333,50
"14578001","14","ST GATIEN DES B",49.3645,0.167,139
"14579002","14","SAINT GEORGES D",49.0345,-0.686,185
"14584001","14","SAINT GERMAIN D",48.822833,-0.9035,183
"14584003","14","ST GERMAIN DE TALLEVENDE",48.8005,-0.902167,190
"14588001","14","GERMAIN LANGOT",48.919667,-0.328,197
"14592001","14","STE HONORINE",49.076667,-0.491667,116
"14597001","14","ST JEAN LE BLAN",48.936667,-0.651667,232
"14624001","14","L OUDON LIEURY_SAPC",48.9895,-0.009167,52
"14634001","14","SAINT MICHEL DE",49.006833,0.1295,140
"14637001","14","ST OUEN DU MESN",49.15,-0.116667,40
"14643001","14","ST PAUL DU VERN",49.2,-0.75,110
"14658002","14","SAINT SEVER",48.841167,-1.055167,191
"14659001","14","ST SYLVAIN_SAPC",49.06,-0.234333,62
"14663001","14","SAINT VIGOR",49.2805,-0.696333,33
"14665001","14","SALLENELLES",49.264167,-0.234667,7
"14669001","14","SASSY",48.9855,-0.136667,62
"14695001","14","TORTEVALQUESNAY",49.1525,-0.755333,121
"14715002","14","SEMAPHORE DE VILLERVILLE",49.386167,0.108,113
"14727001","14","VAUBADON",49.21,-0.835333,105
"14743001","14","VICTOT-PONTFOL LA VIGANNERIE",49.165,-0.018333,50
"14762001","14","VIRE",48.878167,-0.863833,103
"14762002","14","VIRE-FOYER DU PROGRES AGRICOLE",48.843333,-0.885,192
"14762004","14","VIRE HIPPODROME",48.850833,-0.899,100
"15001003","15","ALLANCHE",45.232,2.937667,1010
"15014001","15","AURILLAC - VILL",44.935833,2.438333,707
"15014003","15","AURILLAC - ECOL",44.934667,2.446167,623
"15014004","15","AURILLAC",44.8915,2.419167,632
"15025001","15","PRAT DE BOUC",45.0525,2.792,1405
"15033001","15","CEZENS",45.0125,2.846333,1240
"15036001","15","CHALVIGNAC",45.243167,2.224833,300
"15038001","15","CHAMPS.TARENTAI",45.395667,2.565833,501
"15045002","15","CHAUD.AIG.CROIX",44.845167,3.009167,924
"15050001","15","LE CLAUX",45.1725,2.7105,1033
"15053001","15","COLTINES",45.074667,2.990667,979
"15060001","15","DEUX-VERG",44.8005,3.013833,1098
"15060002","15","DEUX-VERGES",44.8015,3.012667,1080
"15061001","15","DIENNE",45.158833,2.787167,1073
"15066001","15","LE FALGOUX",45.136667,2.644833,975
"15067001","15","LE FAU",45.102333,2.607333,1060
"15069001","15","FERRIERES.ST.MA",45.183833,3.057,694
"15083001","15","JUSSAC",44.992,2.416667,630
"15085001","15","LABROUSSE",44.855333,2.540667,800
"15097001","15","LASTIC",45.1125,3.209333,1090
"15101004","15","LE LIORAN_SAPC",45.080833,2.747667,1236
"15112001","15","MALBO",44.979,2.758,1200
"15113001","15","MANDAIL.PRESBYT",45.066667,2.655333,928
"15113003","15","MANDAIL.CURADIT",45.061167,2.6335,921
"15113004","15","MANDAIL.LIADOUZ",45.078167,2.669,981
"15113005","15","MANDAILLES",45.068167,2.6555,920
"15113006","15","MANDAIL.LACOSTE",45.089,2.683667,1110
"15114002","15","MARCENAT",45.302667,2.833,1075
"15118002","15","MARMANHAC",45.002833,2.4745,644
"15119001","15","MASSIAC",45.263333,3.197833,533
"15120001","15","MAURIAC-MOULIN",45.214833,2.3435,730
"15120005","15","MAURIAC",45.222167,2.293167,674
"15122002","15","MAURS",44.734167,2.166,480
"15129001","15","MONTBOUDIF",45.3525,2.716333,750
"15132001","15","MONTGRELEIX",45.316833,2.8765,1236
"15138001","15","MURAT",45.1095,2.862167,904
"15152001","15","PIERREFORT",44.924333,2.839333,1000
"15162003","15","RIOM-MONTAGNES",45.280167,2.664667,837
"15168001","15","RUYNES - GENDAR",45.001167,3.221,900
"15168003","15","RUYNES",45.001333,3.221333,905
"15169001","15","SAIGNES",45.334167,2.4915,533
"15175001","15","ST CERNIN",45.061167,2.419333,760
"15181001","15","ST CONSTANT",44.684833,2.23,260
"15182002","15","ST ETIENNE.CANT",44.9455,2.217833,463
"15187006","15","ST FLOUR",45.024333,3.067333,909
"15191001","15","ST ILLIDE",45.064,2.303833,635
"15192001","15","ST JACQUES.BLAT",45.053833,2.711,1000
"15207002","15","ST- PONCY_SAPC",45.178333,3.174167,805
"15208003","15","ST PROJET SALERS-COL DE LEGAL",45.070333,2.5795,1230
"15214001","15","ST SAURY",44.8675,2.14,705
"15219001","15","SALERS",45.141333,2.493167,945
"15220001","15","SALINS",45.180833,2.386333,660
"15226001","15","SENEZERGUES",44.704,2.428167,530
"15231001","15","TALIZAT",45.113833,3.037333,975
"15235002","15","LES TERNES",44.992833,3.001833,1007
"15248001","15","VALUEJOLS",45.053167,2.935833,1074
"15258001","15","VIC.CERE.BOURG",44.98,2.626667,690
"15258004","15","VIC SUR CERE",44.965833,2.612167,657
"16012001","16","ANGEAC",45.608333,-0.316667,57
"16025003","16","BAIGNES BEL AIR",45.378333,-0.2695,70
"16028001","16","BARBEZIEUX",45.481,-0.148667,72
"16052001","16","BORS",45.346667,0.118333,94
"16057001","16","BOUTEVILLE",45.6,-0.116667,68
"16060001","16","BREVILLE",45.796667,-0.273333,20
"16061003","16","BRIE",45.731833,0.2075,132
"16078001","16","ANGOULEME - BRIE - CHAMPNIERS",45.728,0.220667,124
"16089001","16","COGNAC",45.665,-0.315833,30
"16090001","16","CHATEAUNEUF",45.583333,-0.05,56
"16106003","16","CONFOLENS",46.016667,0.671667,140
"16113001","16","LA COURONNE",45.627833,0.099833,58
"16123001","16","ECHALLAT",45.733333,-0.033333,116
"16152001","16","GIMEUX",45.65,-0.35,22
"16160002","16","GUIMPS",45.466667,-0.25,95
"16163001","16","HIERSAC",45.67,0.02,85
"16166001","16","ISLE D ESPAGNAC",45.666667,0.216667,83
"16167001","16","JARNAC",45.688333,-0.15,17
"16169001","16","JAVREZAC",45.713333,-0.351667,68
"16171001","16","JUILLAC-LE-COQ",45.580167,-0.258333,83
"16211002","16","MARTHON",45.61,0.44,120
"16225001","16","MONTEMBOEUF",45.787167,0.543,247
"16226001","16","MONTIGNAC",45.777167,0.1015,63
"16256001","16","PASSIRAC",45.334,-0.078667,114
"16259002","16","LA PERUSE",45.883833,0.613333,236
"16279001","16","RIOUX MARTIN",45.262,0.003333,81
"16280001","16","RIVIERES",45.765833,0.3715,110
"16283002","16","RONSENAC",45.478333,0.253333,90
"16292001","16","RUFFEC",46.022667,0.178167,121
"16297001","16","GRAVES-SAINT-AMANT",45.641833,-0.1015,23
"16301001","16","ST AULAIS",45.45,-0.033333,95
"16318001","16","ST FRONT",45.881833,0.295833,97
"16357001","16","ST VALLIER",45.3,-0.066667,120
"16360001","16","SALLES DE BARB",45.45,-0.111667,71
"16363001","16","SAULGOND_SAPC",45.956333,0.781667,228
"16366001","16","SEGONZAC_SAPC",45.6145,-0.2235,62
"16369001","16","SIGOGNE",45.735,-0.15,75
"16374002","16","LUCIOLES",45.633333,0.203333,130
"16380001","16","LE TATRE",45.4,-0.216667,95
"16390001","16","TUSSON",45.949,0.062167,88
"16397001","16","VERDILLE",45.888333,-0.065,88
"16403001","16","LE VIEUX CERIER_SAPC",45.9675,0.442,162
"17004002","17","ILE-D'AIX SEMAPHORE",46.006667,-1.17,8
"17016002","17","ARCHIAC",45.523333,-0.283333,56
"17060001","17","BOUTENAC",45.494667,-0.7645,59
"17072001","17","BURIE",45.783333,-0.426667,56
"17093002","17","CHATEAU D'OLERON",45.862167,-1.204333,3
"17121001","17","COUARDE SUR MER",46.1945,-1.417667,3
"17132001","17","CRAMCHABAN",46.203333,-0.728333,21
"17218001","17","MARANS",46.316333,-1.012167,2
"17224001","17","MATHA",45.858667,-0.319667,38
"17225001","17","MATHES",45.716667,-1.146667,6
"17225003","17","MATHES",45.7,-1.225,26
"17226001","17","MAZERAY",45.908167,-0.566833,81
"17243002","17","MONTLIEU_SAPC",45.220167,-0.291833,89
"17248001","17","MORTAGNE-SUR-GIRONDE_SAPC",45.477667,-0.789833,37
"17266001","17","LES NOUILLERS",45.935167,-0.687667,18
"17268002","17","NUAILLE SUR BOUTONNE",46.019833,-0.406667,36
"17283003","17","PONS",45.569167,-0.518,25
"17299001","17","ROCHEFORT",45.933333,-0.993333,4
"17299002","17","ROCHEFORT",45.943333,-0.963333,9
"17299003","17","ROCHEFORT",45.943333,-0.963333,9
"17300001","17","LA ROCHELLE",46.1525,-1.159,4
"17300005","17","LA ROCHELLE AEROD",46.166667,-1.183333,14
"17300006","17","LA ROCHELLE LA REPENTIE",46.173333,-1.218333,9
"17300009","17","LA ROCHELLE-ILE DE RE",46.178,-1.193167,20
"17306004","17","ROYAN-MEDIS",45.633,-0.974667,12
"17308001","17","ST AGNANT",45.888,-0.984667,18
"17318001","17","SAINT-CLEMENT DES BALEINES",46.243,-1.561667,10
"17318002","17","PHARE DES BALEINES",46.244167,-1.561167,3
"17323001","17","CHASSIRON",46.046833,-1.411667,11
"17339002","17","ST GERMAIN DE LUSIGNAN",45.458333,-0.409667,71
"17347001","17","ST-JEAN-D Y.",45.945,-0.518333,32
"17353001","17","ST-LAURENT PREE-INRAE",45.988333,-1.027,3
"17415003","17","SAINTES",45.761167,-0.652,38
"17418001","17","SALIGNAC",45.670667,-0.4225,15
"17434002","17","SURGERES",46.096667,-0.737,25
"17448001","17","TONNAY-BOUTONNE",45.95,-0.716667,24
"17451001","17","LES-TOUCHES",45.916667,-0.233333,52
"17469001","17","VILLARS EN PONS",45.6,-0.625,55
"17477001","17","VILLIERS_SAPC",45.9875,-0.152,106
"18003003","18","LES AIX-D'ANG.",47.209667,2.552333,195
"18011003","18","ARGENT",47.568333,2.438333,171
"18015001","18","AUBIGNY",47.488333,2.441667,188
"18015003","18","AUBIGNY-SUR-NERE",47.4995,2.427333,176
"18023001","18","BAUGY",47.071167,2.713667,170
"18030001","18","BLANCAFORT",47.549167,2.531167,219
"18033001","18","BOURGES",47.059167,2.359833,161
"18033004","18","BOURGES - EN",47.08,2.396667,156
"18036001","18","BRINAY",47.166667,2.081,131
"18037001","18","BRINON",47.5645,2.262333,133
"18039001","18","BUE",47.316833,2.79,271
"18047001","18","CHAPELLE-D'ANG_SAPC",47.373833,2.426667,190
"18057003","18","CHATEAUMEILLANT",46.564,2.2175,243
"18058002","18","CHATEAUNEUF",46.861833,2.332333,166
"18059001","18","LE CHATELET",46.644,2.273833,210
"18066002","18","CIVRAY",46.992167,2.182167,148
"18082003","18","CUFFY",46.963833,3.053167,183
"18083002","18","CULAN",46.551333,2.352167,272
"18087001","18","DUN",46.878333,2.566167,160
"18087003","18","DUN-SUR-AURON",46.9055,2.557833,167
"18089001","18","EPINEUIL",46.563333,2.519833,228
"18090001","18","ETRECHY",47.147167,2.698667,194
"18092001","18","AVORD",47.052167,2.642167,175
"18097001","18","FUSSY",47.144667,2.430333,152
"18103001","18","GRACAY",47.139333,1.844667,108
"18108001","18","LA GUERCHE",46.959167,2.955,185
"18109002","18","HENRICHEMONT",47.285833,2.579167,377
"18110004","18","HERRY",47.219667,2.949833,166
"18116001","18","JALOGNES",47.227333,2.789333,207
"18117001","18","JARS",47.385167,2.615167,282
"18125004","18","LERE",47.457833,2.893167,139
"18126001","18","LEVET",46.941167,2.405833,174
"18127001","18","LIGNIERES",46.753333,2.1985,191
"18135001","18","MAISONNAIS",46.672667,2.2235,219
"18137001","18","MAREUIL",46.8805,2.155667,137
"18141001","18","MEHUN-SUR-YEVRE",47.146833,2.217833,122
"18159001","18","NANCAY",47.393167,2.201,142
"18165001","18","NEUVY-SUR-BAR.",47.323,2.243833,154
"18171001","18","ORCENAIS",46.71,2.406167,212
"18172001","18","ORVAL",46.721667,2.483167,165
"18172003","18","ORVAL RAD",46.731,2.467333,165
"18175001","18","OUROUER-LES-B.",46.919833,2.8185,253
"18175003","18","OUROUER",46.925333,2.803333,221
"18176001","18","PARASSY",47.230333,2.5245,257
"18181001","18","PLOU",46.999667,2.122333,124
"18183002","18","LE PONDY",46.803667,2.6415,171
"18187004","18","PREVERANGES",46.425333,2.2365,462
"18190001","18","QUINCY",47.129833,2.152333,124
"18190002","18","QUINCY_SA",47.136333,2.137833,128
"18197004","18","ST-AMAND-MTROND",46.737333,2.502833,177
"18207003","18","ST-FLORENT/CHER",46.989333,2.248667,146
"18218001","18","ST-JUST",46.986667,2.492333,143
"18223003","18","ST-MARTIN-D'A.",47.200667,2.416833,172
"18231001","18","ST-PIERRE",46.729,2.631667,174
"18239001","18","SALIGNY",47.038333,2.763833,215
"18240002","18","SANCERGUES",47.154667,2.910333,178
"18241002","18","SANCERRE",47.336167,2.799,240
"18242001","18","SANCOINS",46.831333,2.9265,203
"18251001","18","SEVRY",47.138,2.804667,205
"18262001","18","THAUVENAY",47.304167,2.868167,158
"18262002","18","THAUVENAY_SA",47.302,2.8615,195
"18269001","18","VAILLY",47.456833,2.641667,197
"18269003","18","VAILLY/SAULDRE",47.453833,2.615833,226
"18279001","18","VIERZON - VEVES",47.2195,2.014167,98
"18279005","18","VIERZON",47.237833,2.073167,155
"19010001","19","ARGENTAT",45.101333,1.9375,190
"19015001","19","AYEN",45.249833,1.3255,300
"19016001","19","BAR",45.3445,1.823833,269
"19019001","19","BEAULIEU S/DOR.",44.9775,1.837667,146
"19023001","19","BEYNAT",45.123833,1.7205,373
"19023004","19","BEYNAT-ESPAGNAGOL",45.133833,1.720667,430
"19029001","19","BRANCEILLES",45.011167,1.704833,190
"19031001","19","BRIVE-MIGOULE",45.178333,1.546667,203
"19031002","19","BRIVE-CIPAN",45.16,1.545,111
"19031003","19","BRIVE COLLEGE",45.161667,1.53,112
"19031008","19","BRIVE",45.146667,1.473333,115
"19033001","19","BUGEAT",45.602667,1.930333,694
"19034001","19","CAMPS",44.983667,1.988333,519
"19036001","19","CHAMBERET",45.573667,1.724667,444
"19073001","19","EGLETONS-MART.",45.405333,2.042667,638
"19073006","19","EGLETONS",45.398833,2.059167,610
"19094001","19","JUILLAC",45.319333,1.323,305
"19094004","19","JUILLAC-LES-PRADES",45.332167,1.321,370
"19100001","19","LAGRAULIERE",45.371667,1.602167,415
"19102001","19","LAMAZIERE-BASSE",45.373167,2.172333,576
"19118001","19","LE LONZAC",45.468,1.7455,499
"19118002","19","LE LONZAC-ROME",45.496833,1.729333,405
"19121002","19","LUBERSAC",45.410333,1.411167,390
"19125001","19","MARCILLAC",45.2835,2.039833,598
"19129001","19","MASSERET",45.542,1.517667,490
"19133001","19","MERCOEUR",45.009333,1.949833,478
"19134001","19","MERLINES",45.626,2.462833,730
"19136002","19","MEYMAC",45.534333,2.154333,670
"19139001","19","MILLEVACHES",45.642667,2.0955,915
"19146001","19","NAVES",45.3215,1.772667,450
"19147001","19","BRIVE-SOUILLAC",45.036333,1.491667,295
"19148001","19","NEUVIC",45.379167,2.2815,615
"19164001","19","PEYRELEVADE",45.701,2.058667,827
"19181001","19","SAINT AUGUSTIN",45.424333,1.838,560
"19201001","19","USSEL-THALAMY",45.537333,2.42,740
"19206001","19","ST-GERMAIN-LAV.",45.615,2.202833,684
"19226001","19","ST-MERD-OUSSIN.",45.631833,2.039333,818
"19227001","19","ST-MEXANT",45.293667,1.639833,398
"19235001","19","SAINT PAUL",45.197833,1.8855,532
"19237001","19","ST-PRIVAT",45.139,2.096,585
"19249001","19","ST YRIEIX",45.4705,1.984167,748
"19264001","19","SOURSAC",45.249,2.212833,528
"19272001","19","TULLE",45.2425,1.740333,235
"19275001","19","USSEL-LAMARTINE",45.558833,2.321333,654
"19275004","19","USSEL-LES PLAINES",45.527667,2.281667,670
"19275005","19","USSEL-COUZERGUES",45.558333,2.296667,670
"19276006","19","UZERCHE",45.396333,1.568167,422
"19288002","19","VOUTEZAC-MAN",45.285333,1.4645,130
"19288004","19","VOUTEZAC",45.279833,1.416,124
"20002001","20","AGHIONE",42.1045,9.430667,42
"20004002","20","AJACCIO",41.918,8.792667,5
"20004003","20","AJACCIO-PARATA",41.908333,8.618167,124
"20004005","20","AJACCIO-ILES SANGUINAIRES",41.876167,8.59,57
"20004009","20","AJACCIO-VIGNOLA",41.912167,8.653833,80
"20004010","20","AJACCIO-ASPRETTO",41.924,8.763333,4
"20004014","20","AJACCIO-MILELLI_SAPC",41.9385,8.720833,86
"20007001","20","ALBERTACCE-POPPAGHIA",42.284833,8.921167,1074
"20007400","20","Vergio",42.286833,8.891667,1420
"20007402","20","SPONDE-NIVOSE",42.3245,8.882667,1981
"20009001","20","ALERIA-CASABIANDA 3",42.093333,9.502333,41
"20009006","20","ALERIA-CASABIANDA 2",42.093333,9.502333,41
"20009007","20","ALERIA-CASABIANDA 1",42.114167,9.513,41
"20016001","20","ANTISANTI-ORTF",42.1685,9.3415,737
"20016004","20","ANTISANTI-ECOLE",42.165,9.346667,750
"20016005","20","ANTISANTI_SDIS",42.167667,9.336167,683
"20017001","20","APPIETTO-CARBINICA",41.9925,8.719667,317
"20017002","20","APPIETTO-LISTINCONE",42.003667,8.760833,235
"20023005","20","ASCO_SAPC",42.403833,8.922667,1400
"20023400","20","ASCO-STAGNU",42.402667,8.922667,1434
"20029001","20","BARBAGGIO-DDE",42.688333,9.38,300
"20029002","20","BARBAGGIO-PIAZZE",42.689667,9.377833,300
"20031001","20","BASTELICA-VILLAGE",41.9985,9.0405,828
"20031002","20","BASTELICA-PINETA",41.959167,9.003833,661
"20031005","20","BASTELICA-GEND",42.001833,9.0525,784
"20031400","20","Bastelica",41.999333,9.123167,1623
"20033007","20","BASTIA- VIEUX PORT",42.696167,9.452,2
"20033009","20","BASTIA-MONTESORO",42.670333,9.442167,25
"20033011","20","BASTIA-FANGO",42.704333,9.444833,26
"20033012","20","BASTIA-PORT 1",42.693333,9.446667,7
"20033015","20","BASTIA_SAPC",42.704333,9.444833,26
"20034001","20","BELGODERE-GEND",42.587667,9.023,286
"20034003","20","BELGODERE-DDE",42.587833,9.023167,290
"20040001","20","BOCOGNANO-GARE",42.080167,9.0525,660
"20040002","20","BOCOGNANO-DDE",42.083667,9.066,680
"20040003","20","BOCOGNANO-GARE",42.080167,9.052333,671
"20040004","20","BOCOGNANO",42.104167,9.103333,1019
"20040800","20","BOCOGNANO GARE_DOUBLE",42.080167,9.052333,671
"20041001","20","CAP PERTUSATO",41.374833,9.178333,107
"20046001","20","CAGNANO_OBS",42.877167,9.429,190
"20046002","20","CAGNANO",42.886667,9.4395,278
"20047001","20","CALACUCCIA-GEND",42.336167,9.0125,875
"20047003","20","CALACUCCIA-DDE",42.335,9.016667,800
"20047006","20","CALACUCCIA",42.3315,9.0215,811
"20048001","20","CALCATOGGIO-GEND 2",42.029167,8.760667,286
"20048002","20","CALCATOGGIO-GEND 1",42.029167,8.760667,286
"20049001","20","CALENZANA-CAVALLO",42.511833,8.673667,295
"20049003","20","CALENZANA-MF",42.442,8.854,547
"20050001","20","CALVI",42.5295,8.7915,57
"20050002","20","CALVI-REVELLATA",42.583,8.724333,52
"20051001","20","CAMBIA",42.372167,9.2955,822
"20054001","20","CAMPILE",42.495167,9.353,484
"20054002","20","CAMPILE_SAPC",42.494667,9.353,499
"20057002","20","CANALE DI VERDE-ALISTRO",42.260333,9.540333,71
"20061002","20","CARBINI-COL DE MELA",41.669667,9.184333,1105
"20062001","20","CARBUCCIA-Gare",42.024333,8.909667,208
"20065002","20","CARGESE",42.171667,8.607,17
"20083001","20","CASTIRLA",42.380167,9.134167,376
"20085001","20","CAURO",41.916,8.9205,394
"20085002","20","CAURO-PAVIGLIA",41.903667,8.858167,67
"20087002","20","CERVIONE CES",42.333333,9.483333,300
"20087003","20","CERVIONE-DDE",42.331667,9.49,300
"20092001","20","CONCA",41.717,9.3485,253
"20093001","20","CORBARA COUVENT",42.602667,8.912,296
"20093002","20","ILE ROUSSE",42.633167,8.922667,142
"20094001","20","CORRANO-VILLAGE",41.8885,9.064,447
"20094002","20","CORRANO-CARLU",41.888,9.057333,596
"20096001","20","CORTE-GEND",42.303333,9.165,384
"20096002","20","CORTE-SAN QUILICO",42.347,9.171833,566
"20096003","20","CORTE-DDE 1",42.303333,9.15,440
"20096004","20","CORTE U SERENU",42.303,9.154,400
"20096005","20","CORTE_FDF",42.299833,9.174333,362
"20096008","20","CORTE",42.2885,9.193167,350
"20098001","20","COTI CHIAVARI-GEND",41.773333,8.772333,491
"20100001","20","CRISTINACCE",42.2375,8.838333,1171
"20107001","20","CAP CORSE",43.003833,9.3595,72
"20107003","20","ERSA-ILE GIRAGLIA",43.026667,9.4055,50
"20108001","20","EVISA-VILLAGE",42.254,8.803167,856
"20108002","20","EVISA-ONF",42.263333,8.838667,1030
"20108003","20","EVISA ONF 1",42.263333,8.838667,1030
"20111002","20","FELCE-ORTIA",42.349667,9.401833,796
"20111003","20","FELCE AQUALINA",42.350833,9.417,784
"20114002","20","FIGARI",41.505167,9.103667,20
"20121001","20","GALERIA-GEND",42.409,8.646667,29
"20121002","20","GALERIA-DDE",42.386333,8.686833,154
"20124001","20","GHISONI GEND",42.103333,9.211667,658
"20124002","20","GHISONI-MARMANO 2",42.04,9.1965,977
"20124004","20","GHISONI-MARMANO 1",42.04,9.1965,977
"20126001","20","GIUNCAGGIO_SAPC",42.2165,9.369333,685
"20129001","20","GROSSA-Sénétosa",41.558333,8.794167,66
"20130001","20","GROSSETO PRUGNA",41.89,8.818833,68
"20131001","20","GUAGNO-MF",42.172833,8.892,750
"20134001","20","L'ILE ROUSSE-PIETRA",42.644667,8.932,50
"20134003","20","L'ILE ROUSSE-DDE 2",42.631667,8.936667,6
"20134004","20","L'ILE ROUSSE-DDE",42.631667,8.936667,6
"20135001","20","ISOLACCIO DI FIUMORBO-ONF",42.001667,9.281667,734
"20135002","20","ISOLACCIO DI FIUMORBO",41.992333,9.305,198
"20142001","20","LEVIE",41.7035,9.125833,571
"20142002","20","LEVIE-FOCE",41.626,9.082667,262
"20142003","20","LEVIE-DDE",41.705333,9.126667,611
"20147001","20","LOZZI",42.3495,9.010833,1063
"20148001","20","BASTIA",42.540667,9.485167,10
"20152003","20","LURI AGGLOMERATION",42.895,9.408333,112
"20153001","20","MANSO-PIRIO 2",42.377,8.749167,195
"20153003","20","MANSO-PIRIO 1",42.373333,8.778333,195
"20154001","20","MARIGNANA",42.188833,8.655333,515
"20156001","20","MAUSOLEO-TARTAGINE",42.4945,8.992833,713
"20160001","20","MOCA-CROCE",41.761667,9.0165,951
"20161001","20","MOITA-GEND",42.277333,9.415167,502
"20169001","20","MOROSAGLIA-GEND",42.462167,9.204,198
"20169003","20","MOROSAGLIA-GARE",42.464833,9.204167,195
"20169005","20","PONTE-LECCIA_OBS",42.461667,9.203,203
"20169006","20","MOROSAGLIA-PRATO",42.4285,9.3245,960
"20169007","20","PONTE-LECCIA",42.472667,9.199833,240
"20172002","20","MURATO-BOURG",42.573333,9.318333,530
"20173001","20","MURO-FELICETO",42.543667,8.934833,360
"20174001","20","MURZO",42.167667,8.827333,339
"20178001","20","NONZA-GEND",42.7845,9.345333,140
"20181001","20","OCANA EDF",41.945833,8.935167,191
"20185001","20","OLETTA",42.636667,9.343333,130
"20185003","20","OLETTA",42.632333,9.3205,75
"20190001","20","OLMI CAPPELLA-MF",42.5285,9.021833,855
"20190002","20","OLMI-CAPPELLA",42.5295,9.0165,844
"20191001","20","OLMICCIA",41.690833,9.058167,364
"20193001","20","OMESSA",42.401667,9.191667,264
"20198001","20","OTA-PORTO",42.263833,8.708833,28
"20198002","20","PORTO CANTONNIER",42.262167,8.708,32
"20200001","20","PALNECA-ONF 2",41.964333,9.191333,928
"20200003","20","PALNECA-ONF 1",41.964333,9.191333,928
"20203002","20","PARTINELLO-CURZU",42.317,8.6665,264
"20204002","20","PASTRICCIOLA-GITE COMMUNAL",42.1365,8.982667,554
"20204003","20","PASTRICCIOLA-VILLAGE",42.140167,8.9835,583
"20207001","20","FOLELLI",42.441667,9.510667,16
"20209001","20","PERI-VILLAGE",42.0045,8.922333,454
"20209003","20","PERI_SAPC",42.003167,8.905667,433
"20211001","20","PETRETO BICCHISANO",41.785167,8.979167,450
"20211002","20","PETRETO BICCHISANO-DDE",41.789167,8.924,75
"20212001","20","PIANA-DDE",42.194833,8.6365,172
"20212002","20","PIANA-GEND",42.239167,8.6345,439
"20214001","20","PIANO-DDE",42.445,9.403333,629
"20215002","20","PIANOTOLLI-CALDARELLO",41.483333,9.06,80
"20218001","20","PIEDICORTE DI GAGGIO-ECOLE  2",42.236167,9.328167,735
"20218002","20","PIEDICORTE DI GAGGIO-ECOLE  1",42.236167,9.328167,735
"20219001","20","PIEDICROCCE-PTT",42.374,9.368333,613
"20223001","20","PIETRALBA",42.541,9.172,510
"20224001","20","PIETRACORBARA",42.8535,9.4215,354
"20232001","20","PILA CANALE-GEND",41.808833,8.913833,389
"20232002","20","PILA-CANALE",41.8145,8.903667,407
"20236001","20","POGGIO DI NAZZA-ONF",42.055,9.3,400
"20240001","20","GUAGNO LES BAINS",42.174833,8.890667,430
"20246001","20","LA PORTA-GEND",42.4235,9.353333,522
"20247001","20","LA CHIAPPA",41.594833,9.363167,57
"20247006","20","PORTO VECCHIO-MARGHESE",41.662667,9.189833,957
"20247007","20","PORTO VECCHIO-OSPEDALE DDE",41.650833,9.194,853
"20247011","20","PORTO VECCHIO-COLLEGE",41.602,9.271667,13
"20248001","20","PRATO DI GIOVELLINA-DDE",42.423333,9.163333,848
"20249001","20","PROPRIANO VILLE",41.675333,8.902,5
"20249003","20","PROPRIANO",41.678167,8.915,34
"20251001","20","PRUNELLI DI FIUMORBO-GEND",42.009667,9.322667,558
"20254001","20","QUENZA-BAVELLA",41.810833,9.246167,667
"20254004","20","QUENZA-LARONE",41.831667,9.275833,612
"20254006","20","QUENZA",41.777667,9.142833,932
"20255001","20","STOPPIA NOVA",42.430667,9.340833,780
"20258001","20","RENNO",42.190167,8.807167,755
"20264001","20","RUSIO",42.367167,9.266167,863
"20264002","20","RUSIO_SAPC",42.364167,9.2645,860
"20266001","20","SALICE",42.121,8.902,642
"20268001","20","SAMPOLO",41.943,9.123,837
"20269001","20","SARI SOLENZARA-GEND",41.858167,9.395833,23
"20269002","20","SARI SOLENZARA-DDE",41.854167,9.400833,7
"20270001","20","SARI D'ORCINO",42.0785,8.802333,407
"20270002","20","SARI D'ORCINO-ALZETO",42.076,8.8025,353
"20272001","20","SARTENE-CIMETIERE",41.620167,8.962167,272
"20272002","20","SARTENE MADONINA",41.644,8.958,44
"20272003","20","SARTENE-AGGLOMERATION",41.621667,8.973333,300
"20272004","20","SARTENE",41.652333,8.979333,62
"20273001","20","SCATA",42.429333,9.412167,185
"20278400","20","BUCCHINERA",41.823667,9.142333,1528
"20281001","20","CAP SAGRO",42.798333,9.488667,111
"20284001","20","SOLLACARO",41.761667,8.874667,33
"20298001","20","SAINT FLORENT-GEND",42.675,9.303333,8
"20298004","20","SAINT FLORENT-FORNALI",42.688833,9.279667,5
"20303002","20","ALISTRO",42.259667,9.5415,65
"20304001","20","SAN LORENZO-SAINT LAURENT",42.3835,9.289833,631
"20308001","20","STE-LUCIE-TALLANO-BOURG",41.6985,9.063667,439
"20312001","20","SANTA MARIA SICHE",41.879167,8.989167,541
"20312003","20","SANTA-MARIA",41.878333,8.981667,480
"20314001","20","SANTO PIETRO DI TENDA-BACCIALU",42.6555,9.171167,340
"20314006","20","SANTO PIETRO DI TENDA",42.635833,9.200667,484
"20326001","20","TOLLA_SAPC",41.9635,8.959167,698
"20330001","20","UCCIANI",42.043333,8.976667,500
"20330002","20","UCCIANI-CINTULINU",42.061167,8.965167,291
"20332001","20","URTACA-CHIERCHIU",42.655,9.115,154
"20333001","20","VALLECALLE-ECOLE",42.596667,9.338667,348
"20336001","20","VALLE-DI-MEZZANA",42.028333,8.832,450
"20339001","20","VALLICA-TARTAGINE",42.4945,8.992833,713
"20341001","20","VENACO-GEND",42.234833,9.174167,615
"20341003","20","VENACO-SERRAGGIO",42.23,9.173333,626
"20341400","20","MANICCIA-NIVOSE",42.21,9.05,2360
"20342001","20","SOLENZARA",41.921833,9.400833,12
"20342003","20","VENTISERI-MIGNATAJA",41.964667,9.387333,25
"20342004","20","VENTISERI-TRAVO",41.917333,9.390667,19
"20347001","20","VEZZANI-ONF",42.171667,9.245,750
"20348001","20","VICO COUVENT",42.160667,8.801167,414
"20348002","20","VICO-DDE",42.1665,8.803167,383
"20348003","20","VICO-SAGONE",42.111833,8.687,27
"20354001","20","VIVARIO-VIZZAVONA 3",42.124,9.133667,986
"20354002","20","VIVARIO-ECOLE",42.173167,9.17,648
"20354003","20","VIVARIO-GARE",42.177333,9.168833,630
"20354004","20","VIVARIO-VIZZAVONA 2",42.124,9.133667,986
"20354005","20","VIVARIO-COL DE LA SERRA",42.169667,9.165833,807
"20354006","20","VIVARIO-VIZZAVONA 1",42.124,9.133667,986
"20354007","20","FORET_VIZZAVONA",42.124,9.133667,986
"20354008","20","VIVARIO_SAPC",42.152667,9.149167,773
"20356001","20","ZALANA",42.25,9.366667,635
"20359001","20","ZICAVO-PIAZZI",41.9065,9.126667,630
"20359003","20","ZICAVO-DDE",41.878,9.107333,962
"20359004","20","ZICAVO-GEND",41.9065,9.128,654
"20362001","20","ZONZA-GEND",41.750667,9.171,772
"20362002","20","ZONZA-ONF",41.710833,9.208833,965
"20362004","20","ZONZA-BAVELLA",41.7965,9.225667,1212
"20362005","20","ZONZA",41.747167,9.172,808
"21012001","21","AMPILLY LE SEC",47.808333,4.529,277
"21030001","21","AUBAINE",47.166667,4.703833,380
"21043001","21","BAIGNEUX LES JUIFS",47.600333,4.645167,415
"21056001","21","BEIRE LE CHATEL",47.413833,5.208333,250
"21065001","21","BESSEY",47.086,4.743167,593
"21068001","21","BEUREY-BAUGUAY",47.233667,4.419833,410
"21109001","21","BRION SUR OURCE",47.916167,4.659333,234
"21116002","21","BURE LES TEMPLIERS_SAPC",47.7195,4.948167,461
"21131001","21","PAGNY-LE-CHATEAU",47.043167,5.190667,182
"21139001","21","CHAMPEAU-EN-M",47.257,4.133667,600
"21142001","21","CHANCEAUX",47.524333,4.713333,465
"21146001","21","CHARMES",47.377667,5.345333,198
"21154001","21","CHATILLON/SEINE",47.849333,4.581333,262
"21154002","21","CHATILLON-SUR-SEINE",47.858333,4.573333,215
"21154003","21","CHATILLON-SUR-SEINE BOURG",47.858333,4.573333,270
"21154006","21","CHATILLON-SUR-SEINE BOURG",47.858333,4.573333,234
"21164002","21","CHAZILLY",47.188833,4.602,400
"21228001","21","DETAIN-ET-BRUANT",47.172833,4.791167,590
"21231001","21","DIJON",47.320667,5.019333,241
"21231007","21","DIJON TOISON",47.358333,5.043333,270
"21237001","21","ECHALOT",47.613333,4.835333,440
"21296001","21","GEVROLLES",47.987833,4.775167,230
"21299001","21","GISSEY-SOUS-FLAVIGNY",47.512,4.589,280
"21304002","21","GRANCEY LE CHATEAU",47.668333,5.025333,403
"21308001","21","GRIGNON",47.560833,4.407,335
"21310001","21","GROSBOIS-EN-MONTAGNE",47.319333,4.596333,376
"21312001","21","GURGY-LA-VILLE",47.848833,4.940333,301
"21321001","21","JAILLY-LES-M.",47.458333,4.598333,310
"21326001","21","JOURS LES BAIGNEUX_SAPC",47.636,4.596333,392
"21332001","21","LABERGEMENT LES",47.006833,5.088833,203
"21343001","21","DIJON-LARREY",47.306667,4.992833,305
"21349001","21","LIERNAIS",47.207833,4.2835,492
"21361001","21","LUX",47.487667,5.207,252
"21380001","21","MARCIGNY SOUS THIL",47.3955,4.3845,316
"21386001","21","MARIGNY LE CAHOUET",47.4475,4.4335,335
"21390001","21","MARSANNAY LA COTE",47.266667,4.986833,280
"21395001","21","MASSINGY-LES-VITTEAUX_SAPC",47.388667,4.586333,509
"21406001","21","MESMONT",47.308167,4.733833,448
"21410001","21","MEULSON",47.688333,4.698833,401
"21425001","21","MONTBARD_SAPC",47.6285,4.3305,209
"21445001","21","LA MOTTE-TERNANT",47.328,4.337167,362
"21446001","21","MOUTIERS-ST-J.",47.563167,4.214667,277
"21454001","21","NICEY",47.860333,4.315333,209
"21461001","21","NOLAY",46.957833,4.6225,375
"21464001","21","NUITS ST GEORGE",47.136667,4.953333,232
"21473001","21","DIJON-LONGVIC",47.267833,5.088333,219
"21484001","21","PLANAY",47.746,4.381,278
"21501003","21","POUILLY EN AUX_SAPC",47.251333,4.561,412
"21503001","21","POUILLY SUR VINGEANNE",47.542667,5.417667,239
"21515001","21","QUETIGNY",47.316167,5.126167,217
"21519001","21","RECEY SUR OURCE",47.782167,4.864167,326
"21527001","21","LA ROCHEPOT",46.9525,4.674,417
"21546001","21","ST-DIDIER",47.325833,4.161833,553
"21560001","21","ST-MARTIN-MER",47.238167,4.260833,521
"21561001","21","ST-MARTIN (MAN)",47.431667,4.788333,540
"21561003","21","ST-MARTIN-DU-M",47.4005,4.781167,578
"21564001","21","ST NIC. CITEAUX",47.122167,5.072167,203
"21567001","21","ARNAY_SAPC",47.124833,4.498667,396
"21569001","21","SAINT-ROMAIN CHATEAU",46.995,4.708333,425
"21573001","21","SAINT-SEINE-L'ABBAYE BOURG",47.44,4.786667,419
"21573003","21","SAINT-SEINE-L'ABBAYE BOURG",47.44,4.786667,461
"21584001","21","SAULIEU",47.264167,4.215,586
"21589001","21","SAUSSY",47.468833,4.961833,554
"21590001","21","SAVIGNY LES BEA",47.056333,4.836667,246
"21603001","21","SEMUR EN AUXOIS_SAPC",47.482,4.34,314
"21603003","21","SEMUR-EN-AUXOIS",47.491667,4.33,285
"21611001","21","SOMBERNON RUE D'ARNAY",47.308333,4.705,535
"21633002","21","THOREY SOUS CHARNY_SAPC",47.319167,4.4395,421
"21638002","21","TIL-CHATEL_SAPC",47.544833,5.2075,283
"21648001","21","TURCEY",47.408333,4.715,365
"21656001","21","VARANGES",47.233333,5.196667,200
"21685001","21","VILLAINES EN D",47.68,4.524833,344
"21699001","21","VILLERS_LES_POTS",47.205833,5.350667,199
"21710004","21","VITTEAUX",47.402833,4.543,312
"21714001","21","VOSNE ROMANEE",47.161833,4.954167,255
"22001001","22","ALLINEUC",48.3,-2.901667,170
"22005003","22","BELLE-ISLE-EN-TERRE",48.55,-3.3875,158
"22011001","22","BOQUEHO",48.468333,-2.958333,168
"22015001","22","BREHAND",48.401833,-2.572167,91
"22016001","22","ILE-DE-BREHAT",48.855167,-3.0045,25
"22020002","22","BROONS",48.3175,-2.233167,108
"22023001","22","BULAT-PESTIVIEN",48.447,-3.318167,250
"22025004","22","CALLAC",48.414667,-3.396833,187
"22032002","22","CAULNES-EDF",48.298333,-2.142167,75
"22033001","22","CAUREL-EDF",48.207667,-3.051333,150
"22034001","22","CAVAN",48.675333,-3.344167,95
"22045001","22","COHINIAC",48.463333,-2.95,180
"22045002","22","COHINIAC",48.459667,-2.948333,187
"22046003","22","COLLINEE-EDF",48.294833,-2.499333,201
"22047002","22","CORLAY",48.311667,-3.058333,190
"22048001","22","CORSEUL",48.481167,-2.196833,65
"22052001","22","DUAULT",48.365,-3.411667,155
"22052002","22","DUAULT",48.37,-3.454167,181
"22065002","22","GOUDELIN",48.599333,-3.012,102
"22081001","22","HILLION",48.5005,-2.642,53
"22092001","22","KERPERT",48.404,-3.147667,281
"22093001","22","LAMBALLE",48.475833,-2.526,50
"22104001","22","LANGUEDIAS",48.386333,-2.212,85
"22108001","22","LANLEFF",48.691167,-3.0405,78
"22113004","22","LANNION",48.743333,-3.543333,65
"22113006","22","LANNION_AERO",48.755333,-3.468667,85
"22114001","22","LANRELAS",48.251667,-2.293333,95
"22114003","22","LANRELAS-EDF",48.248833,-2.2915,112
"22115001","22","LANRIVAIN",48.348333,-3.2155,255
"22116003","22","LANRODEC",48.490167,-3.0465,221
"22118001","22","LANVALLAY",48.440833,-2.016333,81
"22121001","22","LANVOLLON",48.631667,-2.983333,95
"22128001","22","LOCARN",48.336833,-3.471333,161
"22135001","22","LOUARGAT",48.551667,-3.376833,148
"22136001","22","LOUDEAC",48.165167,-2.765,130
"22138003","22","MAEL-PESTIVIEN-EDF",48.418667,-3.303167,257
"22147006","22","MERDRIGNAC",48.188,-2.4205,145
"22158001","22","MUR-DE-BRETAGNE",48.19,-3.011667,83
"22158002","22","MUR-DE-BRETAGNE",48.183333,-3.,128
"22158004","22","MUR-DE-BRETAGNE",48.201667,-2.995,156
"22158005","22","MUR-DE-BRETAGNE",48.204333,-3.001167,155
"22162002","22","PAIMPOL",48.785,-3.048333,10
"22168001","22","PLOUMANAC'H",48.825833,-3.473167,55
"22171001","22","PLAINTEL",48.395,-2.826667,148
"22171006","22","PLAINTEL",48.431833,-2.808833,206
"22179002","22","FREHEL",48.628333,-2.361667,65
"22183001","22","PLEMET",48.18,-2.625,90
"22183002","22","PLEMET",48.174333,-2.559333,168
"22186002","22","PLENEUF-VAL-AND",48.588333,-2.558333,12
"22186004","22","PLENEUF VA",48.581667,-2.535333,65
"22189001","22","PLESIDY",48.446667,-3.12,205
"22189002","22","PLESIDY",48.445667,-3.126,203
"22190002","22","PLESLIN-TRIGAVO",48.519,-2.083,70
"22193001","22","PLESTAN",48.417167,-2.382,92
"22203002","22","PLOEUC-SUR-LIE",48.335,-2.770333,196
"22208001","22","PLOUASNE",48.321667,-2.06,46
"22215001","22","PLOUFRAGAN",48.515,-2.8,122
"22215002","22","PLOUFRAGAN",48.508333,-2.825,45
"22219003","22","PLOUGUENAST",48.265833,-2.748333,235
"22223001","22","PLOUISY",48.576667,-3.19,140
"22223002","22","PLOUISY",48.562,-3.2045,146
"22228001","22","PLOUNEVEZ-MOEDE",48.57,-3.408333,82
"22238001","22","PLUFUR",48.606833,-3.577667,139
"22243001","22","PLUSQUELLEC",48.404167,-3.522333,214
"22247002","22","POMMERIT-JAUDY",48.742,-3.251,55
"22249003","22","PONT-MELVEZ",48.491,-3.258,215
"22261002","22","QUINTENIC",48.519167,-2.42,71
"22262002","22","QUINTIN",48.391667,-2.916667,180
"22263001","22","LE QUIOU",48.3445,-2.0085,20
"22266001","22","ROSTRENEN",48.226667,-3.295333,236
"22278005","22","SAINT BRIEUC",48.506167,-2.735667,84
"22282001","22","SAINT-CAST-LE-G",48.6445,-2.247,35
"22287001","22","SAINT-DONAN",48.468333,-2.863333,170
"22294003","22","ST-GILLES-PLIGEAUX-EDF",48.384333,-3.091333,266
"22333001","22","SAINT-VRAN",48.246,-2.491167,282
"22334001","22","SAINT-IGEAUX",48.2725,-3.104833,205
"22369001","22","TREMEUR",48.348167,-2.287833,69
"22371001","22","TREMOREL",48.198333,-2.2855,125
"22372001","22","ST BRIEUC",48.534667,-2.852,135
"22384001","22","UZEL",48.2775,-2.846667,203
"23001001","23","AHUN LYCEE",46.093333,2.029833,460
"23004003","23","ANZEME MONTBUT",46.257167,1.863667,381
"23008004","23","AUBUSSON_SAPC",45.957833,2.187833,486
"23008005","23","AUBUSSON LYCEE",45.952333,2.173333,440
"23013001","23","AUZANCES_SAPC",46.0215,2.489333,564
"23021001","23","BENEVENT_SAPC",46.121,1.6285,460
"23025001","23","BONNAT",46.315333,1.916333,382
"23030004","23","BOURGANEUF",45.942333,1.725833,513
"23031002","23","BOUSSAC_SAPC",46.343333,2.228333,380
"23036002","23","BUSSIERE-DUNOISE",46.257833,1.772,390
"23045001","23","CHAMBON VOUEIZE",46.186833,2.424667,329
"23046001","23","CHAMBONCHARD",46.176,2.553,320
"23061001","23","CHENERAILLES",46.116833,2.177167,510
"23063001","23","CLAIRAVAUX",45.7785,2.163833,635
"23067001","23","LA COURTINE",45.702667,2.263667,772
"23069002","23","CROCQ",45.867167,2.362167,710
"23075001","23","DUN LE PALESTEL",46.317833,1.666833,365
"23079002","23","FELLETIN",45.880167,2.186,635
"23081001","23","FLAYAT",45.776,2.383167,767
"23082001","23","FLEURAT",46.240333,1.684333,407
"23086002","23","FRANSECHES",46.021333,2.064,500
"23089001","23","GENOUILLAC",46.352333,1.985,306
"23090003","23","GENTIOUX",45.785,1.997333,794
"23093001","23","GOUZON",46.193,2.236833,378
"23096001","23","GUERET BONGEOT",46.1805,1.879333,402
"23096005","23","GUERET GENDARMERIE LELIEVRE",46.168333,1.873333,465
"23096007","23","GUERET-GRANCHER",46.160667,1.867167,546
"23096008","23","GUERET COURTIL",46.1665,1.8545,464
"23108001","23","LEYRAT",46.361667,2.293333,420
"23113001","23","LUPERSAT_SAPC",45.9865,2.393167,610
"23114001","23","LUSSAT",46.167833,2.359,419
"23118001","23","MAISONNISSES",46.066,1.904833,590
"23131001","23","MERINCHAL",45.931667,2.463333,702
"23142001","23","NEOUX",45.915667,2.260667,585
"23144001","23","LA NOUAILLE",45.832,2.055333,720
"23149001","23","PARSAC",46.186333,2.117167,460
"23149002","23","PARSAC-GLAD",46.175167,2.169,440
"23155001","23","PONTARION_SAPC",45.995667,1.852833,455
"23162002","23","ROCHES-BOURSOLLES",46.2995,1.994833,398
"23165001","23","ROYERE VASSIVIE",45.851833,1.938167,711
"23169001","23","LA SAUNIERE",46.131833,1.938,446
"23172001","23","LA SERRE BUSS",46.056833,2.319667,510
"23176001","23","LA SOUTERRAINE",46.2425,1.451833,370
"23192001","23","ST ETIENNE DE FURSAC",46.148333,1.516667,320
"23200002","23","ST GOUSSAUD",46.028,1.558667,572
"23206001","23","ST LAURENT",46.16,1.958333,390
"23206002","23","GUERET-ST LAURENT",46.1755,1.950333,365
"23209001","23","SAINT-LOUP_SAPC",46.140667,2.2645,440
"23223001","23","ST-MOREIL",45.850667,1.683333,414
"23257001","23","VALLIERES",45.899833,2.01,559
"23264001","23","LA VILLEDIEU",45.735,1.897333,600
"24026001","24","BASSILLAC",45.195,0.816667,95
"24028001","24","BEAUMONT",44.7645,0.767167,140
"24035001","24","BELVES",44.773333,1.008333,90
"24035003","24","BELVES",44.782667,0.956,238
"24037001","24","BERGERAC TABAC",44.85,0.523333,33
"24037003","24","BERGERAC PETIT SEMINAIRE",44.851667,0.483333,33
"24037005","24","BERGERAC",44.822833,0.524167,49
"24050001","24","BORREZE SA",44.968333,1.416667,335
"24064001","24","BRANTOME",45.356833,0.645833,129
"24068001","24","LE BUISSON CADO",44.8445,0.91,69
"24081001","24","CARLUX",44.889833,1.361,207
"24133002","24","LA COQUILLE",45.5445,0.982167,324
"24138001","24","COULOUNIEIX",45.176667,0.7,205
"24138002","24","COULOUNIEIX SA",45.176667,0.7,205
"24138004","24","COULOUNIEIX",45.1595,0.676667,217
"24152001","24","DOMME",44.798333,1.219667,165
"24158001","24","DUSSAC",45.411667,1.071667,320
"24167001","24","EYMET",44.667833,0.405,65
"24172001","24","LES EYZIES DE TAYAC",44.935167,1.0195,73
"24212001","24","ISSIGEAC",44.732833,0.607667,106
"24223001","24","LALINDE",44.839167,0.738667,40
"24226001","24","LAMOTHE MONTRAV",44.837333,0.041167,9
"24244001","24","LOLME",44.706667,0.831667,205
"24253001","24","MAREUIL",45.447333,0.447833,126
"24272001","24","MINZAC",44.971667,0.04,65
"24280001","24","MONPAZIER",44.684,0.891667,199
"24291001","24","MONTIGNAC",45.052167,1.147333,77
"24294002","24","MONTPON",45.038333,0.176667,79
"24294003","24","MONTPON-MENESTEROL",45.025667,0.126333,29
"24299001","24","MUSSIDAN",45.033167,0.368333,47
"24311001","24","NONTRON MAN",45.5475,0.674333,262
"24311003","24","NONTRON-HOPITAL",45.527333,0.666333,202
"24328001","24","PIEGUT PLUVIERS",45.620333,0.697667,273
"24335001","24","PORT STE FOY",44.85,0.185667,28
"24336001","24","PRATS DE CARLUX",44.896667,1.321667,220
"24362001","24","STE ALVERE",44.947,0.809833,167
"24372001","24","ST ASTIER",45.136833,0.516833,77
"24376001","24","ST AULAYE",45.197833,0.155333,64
"24437001","24","ST LAURENT VIGN",44.840833,0.419,27
"24452001","24","ST MARTIAL VIVEYROLS",45.357833,0.319333,166
"24453001","24","ST MARTIN  DE FRESSENGEAS",45.4755,0.848333,277
"24455001","24","ST MARTIN RIB.",45.234,0.372,142
"24498003","24","ST SAUD",45.5645,0.832667,335
"24516001","24","SALIGNAC EYVIGU",44.975,1.32,293
"24516002","24","SALIGNAC-EYVIGUES",44.936667,1.364667,276
"24520005","24","SARLAT",44.898667,1.225833,203
"24522001","24","SARRAZAC",45.440333,1.011167,305
"24530001","24","SENCENAC",45.327167,0.6945,180
"24532001","24","SERRES ET MONTG",44.682167,0.428667,75
"24547002","24","TERRASSON-LAVILLEDIEU",45.1355,1.2925,90
"24550001","24","THENON-MAN",45.141,1.07,270
"24550003","24","THENON",45.112667,1.0385,265
"24553001","24","TOCANE ST APRE",45.253667,0.487833,81
"24554001","24","LA TOUR BLANCHE",45.3675,0.443833,150
"24571001","24","VERGT",45.024667,0.718167,127
"24585001","24","VILLEFRANCHE DU",44.631833,1.0695,189
"25004001","25","ABBEVILLERS",47.423333,6.94,590
"25007001","25","ADAM-LES-VERCEL",47.169667,6.394667,665
"25015001","25","AMANCEY",47.038333,6.076667,600
"25021001","25","ARC-ET-SENANS",47.0315,5.782,235
"25047001","25","BAUME-LES-DAMES",47.347167,6.350333,267
"25056001","25","BESANCON",47.249,5.988833,307
"25075001","25","BONNEVAUX",46.811667,6.185,840
"25087002","25","BRANNE_SAPC",47.378,6.472167,287
"25121001","25","CHAPELLE",46.6,6.115,1088
"25127001","25","CHARQUEMONT",47.218833,6.815,884
"25133001","25","CHATILLON-LE-DU",47.3065,6.001333,341
"25187001","25","DAMBELIN",47.371833,6.677333,420
"25195001","25","DANNEMARIE-SUR-",47.201333,5.872833,267
"25219001","25","EPENOY",47.128333,6.37,742
"25219002","25","EPENOY",47.127167,6.366333,752
"25223002","25","COULANS",47.023333,6.0205,468
"25254001","25","LES FOURGS",46.834,6.4365,1140
"25285001","25","GRAND'COMBE-CHATELEU_SAPC",47.019167,6.567167,769
"25315001","25","L'ISLE-ECOLE",47.451667,6.583333,292
"25315002","25","ISLE - SA",47.441667,6.581667,320
"25318001","25","JOUGNE",46.760333,6.388833,988
"25320001","25","LABERGEMENT",46.779667,6.2795,863
"25334001","25","LEVIER_SAPC",46.949333,6.124167,713
"25335001","25","LIEBVILLERS",47.323333,6.796667,365
"25348002","25","LONGEVILLES",46.743667,6.3415,1193
"25356001","25","MAICHE - ROND BUISSON",47.251667,6.813333,855
"25356003","25","MAICHE",47.243,6.791,825
"25372001","25","MEDIERE",47.456,6.601333,302
"25380001","25","MOROND",46.751667,6.355,1423
"25386001","25","MONTANCY",47.368333,7.03,840
"25388002","25","MONTBELIARD",47.503667,6.813333,318
"25400001","25","MONTGESOYE",47.078333,6.195,341
"25411004","25","MORTEAU",47.056667,6.6,790
"25411005","25","MORTEAU SA",47.062333,6.612167,760
"25413001","25","MOUTHE",46.707,6.2095,940
"25413002","25","SOURCE DU DOUBS",46.707,6.2095,940
"25417001","25","NAISEY LES GRANGES",47.2155,6.23,466
"25418001","25","NANCRAY",47.245,6.181667,430
"25432001","25","ORCHAMPS-VENNES",47.126833,6.520333,761
"25434001","25","ORNANS",47.106667,6.148333,341
"25434002","25","ORNANS",47.106667,6.148333,350
"25440001","25","OUHANS",46.998333,6.298333,600
"25453001","25","PIERREFONTAINE",47.216667,6.528833,695
"25462001","25","PONTARLIER",46.927,6.32,808
"25462005","25","PONTARLIER - JOUX",46.905,6.353333,972
"25468001","25","POULIGNEY",47.333833,6.199,286
"25494001","25","LA BOISSAUDE ROCHEJEAN",46.729,6.322833,1222
"25512001","25","LE RUSSEY",47.162167,6.7375,891
"25527001","25","ST VIT",47.183333,5.813333,260
"25529001","25","SANCEY LE GRAND",47.2975,6.579167,507
"25529002","25","SANCEY-LE-GRAND",47.3015,6.581667,490
"25532001","25","SAONE",47.202667,6.092667,397
"25547001","25","SOCHAUX",47.506667,6.815,318
"25595001","25","VELLEROT",47.358333,6.606667,835
"25601002","25","VERCEL",47.183333,6.4,665
"25621001","25","VILLENEUVE-D'AMONT",46.9385,6.021333,663
"25635001","25","LOMONT",47.358667,6.625667,820
"26002002","26","ALBON",45.27,4.816667,150
"26002003","26","ALBON",45.252333,4.822333,153
"26035001","26","BEAUFORT-S-GERV",44.778,5.139,379
"26035002","26","BEAUFORT",44.776667,5.138333,417
"26047001","26","BELLEGARDE-EN-D",44.535167,5.454333,1017
"26047002","26","BELLEGARDE-EN-DIOIS BOURG",44.536667,5.425,840
"26050001","26","BESIGNAN",44.3205,5.317,556
"26056001","26","BOURDEAUX",44.580167,5.142833,432
"26059001","26","BOUVANTE",44.955,5.326667,1071
"26059400","26","FONT D'URLE",44.907167,5.334333,1425
"26063002","26","BUIS -BARONNIES",44.277833,5.270667,390
"26064001","26","VALENCE-CHABEUI",44.914833,4.971833,163
"26071001","26","CHANOS-CURSON",45.061667,4.918333,175
"26074001","26","CHAPELLE-EN-VERCORS_SAPC",44.9615,5.422167,879
"26086003","26","CHATILLON-EN-DI",44.693333,5.481667,570
"26088001","26","CHATUZANGE-GOUB",45.038333,5.09,165
"26100001","26","COMBOVIN",44.8345,5.09,820
"26108001","26","CREST",44.726667,4.99,186
"26113001","26","DIE -EQUIPEMENT",44.755,5.366667,396
"26113002","26","DIE AGGLOMERATION",44.755,5.366667,414
"26113003","26","DIE",44.767667,5.3435,384
"26115001","26","DIVAJEU",44.726833,4.990333,175
"26116002","26","DONZERE",44.429167,4.725333,66
"26123001","26","ESTABLET BOURG",44.505,5.433333,790
"26124001","26","ETOILE",44.819,4.8895,145
"26142001","26","GLANDAGE_SAPC",44.674667,5.615167,1007
"26165001","26","LIVRON",44.794167,4.830667,98
"26167001","26","LUC-EN-DIOIS",44.617333,5.451,537
"26168001","26","LUS L CROIX HTE",44.672833,5.710833,1059
"26168002","26","LUS-LA-CROIX-HAUTE GENDARMERIE",44.665,5.703333,1050
"26176001","26","MARSANNE",44.643333,4.871667,280
"26177001","26","MARSAZ",45.113167,4.938667,213
"26179001","26","MERCUROL",45.0585,4.8835,153
"26182001","26","MIRABEL-AUX-BAR",44.328667,5.100833,238
"26188001","26","MOLLANS-S-OUVEZ",44.234167,5.183167,280
"26189001","26","MONTAUBAN-S-OUV",44.276,5.478333,689
"26191001","26","MONTBOUCHER-S-J",44.545,4.824167,136
"26198001","26","MONTELIMAR",44.581167,4.733,73
"26202001","26","MONTJOUX",44.5095,5.097167,491
"26203001","26","AIGUEBELLE",44.461333,4.842167,206
"26211001","26","MONTSEGUR-S-LAU",44.3615,4.860833,146
"26220001","26","NYONS - SAUVE",44.356667,5.121667,260
"26220009","26","NYONS - CSP",44.356667,5.121667,270
"26220010","26","NYONS P182",44.359167,5.1155,316
"26234001","26","PIEGROS",44.685,5.093333,320
"26234002","26","PIEGROS",44.690333,5.109,260
"26235001","26","PIERRELATTE",44.351833,4.715833,51
"26235003","26","PIERRELATTE AGGLOMERATION",44.376667,4.695,57
"26258001","26","PUY-ST-MARTIN",44.618167,4.976833,211
"26258003","26","PUY-ST-MARTIN_DOUBLE",44.618167,4.977833,211
"26264002","26","REMUZAT",44.431667,5.367,475
"26273002","26","ROCHEFORT-SAMSON_SAPC",44.990667,5.165167,368
"26281001","26","ROMANS_SAPC",45.050167,4.998667,156
"26281002","26","ROMANS-SUR-ISERE",45.052333,5.053667,168
"26289001","26","SAILLANS",44.6965,5.193667,272
"26290002","26","COL DE ROUSSET_SAPC",44.841667,5.421667,1400
"26290400","26","Col du Rousset",44.838667,5.406667,1260
"26292001","26","ST-AUBAN-S-OUVE",44.291667,5.415,625
"26292002","26","ST-AUBAN",44.294833,5.409833,625
"26295001","26","ST-BARTHELEMY-V_SAPC",45.173833,4.9025,203
"26298001","26","ST-CHRISTOPHE-L_SAPC",45.229333,5.071833,452
"26307001","26","ST-JEAN-EN-ROYA",45.009167,5.2925,308
"26313001","26","ST-MARCEL-LES-V-INRAE",44.980167,4.931333,190
"26321003","26","ST-NAZAIRE-LE-D",44.5545,5.284833,607
"26325001","26","ST-RAMBERT-ALBO",45.3,4.853333,150
"26327001","26","ST ROMAN-DIOIS",44.693833,5.428333,545
"26328001","26","ST SAUVEUR EN DIOIS",44.682667,5.157833,338
"26330001","26","ST-SORLIN-EN-VA",45.271167,4.930333,237
"26330002","26","ST-SORLIN-EN-VAL_DOUBLE",45.271667,4.931167,236
"26339001","26","SAVASSE",44.591667,4.773333,142
"26340001","26","SEDERON",44.202333,5.538833,804
"26348001","26","TAULIGNAN",44.430167,4.989833,257
"26361001","26","VALDROME",44.505333,5.576667,786
"26362001","26","VALENCE ECOLE NORMALE",44.926667,4.895,125
"26362003","26","VALENCE - ZUP",44.93,4.916667,150
"26377003","26","VINSOBRES",44.337333,5.060167,346
"26380002","26","GERVANS",45.1125,4.828833,157
"27005001","27","AILLY",49.160667,1.242,146
"27016001","27","LES ANDELYS",49.244667,1.412833,16
"27043001","27","LES BAUX-DE-BRE",48.8705,0.832833,186
"27056003","27","BERNAY",49.101333,0.559833,166
"27065001","27","BEUZEVILLE",49.329167,0.378833,133
"27096001","27","LES BOTTEREAUX",48.8775,0.687,212
"27100001","27","BOULLEVILLE",49.361,0.392833,122
"27112001","27","BRETEUIL",48.8375,0.907667,168
"27116001","27","BRIONNE",49.1905,0.713667,59
"27127001","27","CANAPPEVILLE",49.1545,1.072667,145
"27165001","27","CONCHES",48.955167,0.937667,157
"27177001","27","COUDRES",48.863667,1.244667,149
"27183001","27","LA COUTURE-BOUS",48.894,1.4055,134
"27198002","27","DAMVILLE",48.868167,1.0715,145
"27199001","27","DANGU",49.249667,1.697667,55
"27219001","27","EPEGARD",49.189167,0.8785,136
"27226001","27","ETREPAGNY",49.307167,1.619333,92
"27229001","27","EVREUX ECOLE NORMALE",49.023333,1.153333,67
"27229003","27","EVREUX VILLE",49.023333,1.145833,65
"27283001","27","GISAY-LA-COUDRE",48.9625,0.625,185
"27306001","27","GUICHAINVILLE",48.977,1.181667,147
"27347001","27","EVREUX-HUEST",49.025,1.221667,138
"27367001","27","LIEUREY",49.233,0.524667,163
"27375001","27","LOUVIERS",49.204167,1.187167,25
"27377001","27","LYONS-LA-FORET",49.3995,1.477167,143
"27390001","27","MARCILLY-LA-CAM",48.8325,1.218667,140
"27398001","27","MENNEVAL",49.104167,0.604333,162
"27422001","27","MUIDS",49.224167,1.2805,31
"27428002","27","LE NEUBOURG",49.147667,0.909167,135
"27444001","27","LE-NOYER-EN-OUC",49.005,0.771667,160
"27446001","27","ORMES",49.055167,0.959,142
"27448001","27","PACY-SUR-EURE",49.027333,1.3715,38
"27457001","27","PISEUX",48.773,0.9775,176
"27467001","27","PONT-AUDEMER",49.350333,0.506333,7
"27500001","27","ROUTOT",49.376,0.731333,136
"27644001","27","TILLY",49.145,1.527167,150
"27653001","27","TOURNY",49.179,1.545833,132
"28002001","28","ALLAINES",48.1905,1.846833,133
"28018001","28","AUTHON",48.199667,0.886667,233
"28041001","28","BLANDAINVILLE",48.3035,1.270667,163
"28048001","28","LA BOURDINIERE",48.315,1.427667,156
"28051001","28","BONNEVAL",48.178333,1.382,133
"28051002","28","BONNEVAL",48.205167,1.417333,134
"28061001","28","BROU",48.205167,1.188833,154
"28064001","28","BU - MAN",48.8015,1.493167,132
"28064002","28","BU_SAPC",48.8015,1.493167,132
"28070001","28","CHARTRES",48.4605,1.501167,155
"28078001","28","CHAPELLE-GUILLAUME_SAPC",48.112,0.905833,197
"28094001","28","CHAUDON",48.662833,1.489667,92
"28134003","28","DREUX",48.755,1.366667,133
"28168001","28","GALLARDON",48.525833,1.692333,118
"28190001","28","GUILLONVILLE_CA28",48.091333,1.666167,132
"28190002","28","GUILLONVILLE",48.092833,1.6675,133
"28195001","28","HOUX",48.566167,1.620833,107
"28196001","28","ILLIERS-COMBRAY",48.302333,1.249333,170
"28196003","28","ILLIERS-COMBRAY_SAPC",48.2835,1.253167,170
"28198001","28","CHATEAUDUN",48.061333,1.376333,126
"28206001","28","LAONS",48.706833,1.173167,171
"28214003","28","LA LOUPE_SAPC",48.481,1.013333,200
"28215001","28","LOUVILLE",48.329333,1.816833,145
"28239001","28","MARVILLE - MAN",48.6535,1.368667,150
"28239002","28","MARVILLE_SAPC",48.652667,1.371833,153
"28252001","28","MIERMAIGNE -MAN",48.253333,0.989,267
"28252002","28","MIERMAIGNE",48.253,0.99,267
"28280001","28","NOGENT-LE-ROTROU",48.318667,0.797833,108
"28280002","28","NOGENT",48.328667,0.800167,131
"28300001","28","POINVILLE - MAN",48.175,1.896667,130
"28300002","28","POINVILLE",48.1735,1.8945,130
"28305001","28","PRE-ST-EVROULT",48.181333,1.4675,129
"28322001","28","RUEIL",48.712167,0.959333,157
"28322003","28","RUEIL",48.713,0.971,164
"28350001","28","ST-LUPERCE",48.431167,1.335167,153
"28363001","28","SAINVILLE",48.403833,1.903167,149
"28373002","28","SENONCHES",48.558,1.012167,239
"28380001","28","SOURS - MAN",48.406667,1.56,149
"28380003","28","SOURS_SAPC",48.406333,1.555167,147
"28385001","28","LE THIEULIN",48.406333,1.1345,236
"28386001","28","THIMERT",48.544167,1.302833,225
"28406001","28","VIABON",48.196167,1.679833,138
"28406002","28","EOLE_VIABON",48.213667,1.675167,140
"28407001","28","VICHERES",48.257833,0.910167,235
"28410001","28","VILLAMPUY",48.038333,1.492833,131
"29004001","29","BANNALEC",47.929833,-3.701333,100
"29018001","29","BRENNILIS",48.352667,-3.869,220
"29019001","29","BREST P C RADE",48.383333,-4.483333,35
"29019002","29","BREST",48.386667,-4.49,66
"29019004","29","BREST-ECOLE-NAVALE",48.375,-4.508333,5
"29021001","29","BRIGNOGAN",48.6765,-4.331,9
"29022001","29","CAMARET",48.274333,-4.606,40
"29024003","29","CARHAIX",48.277,-3.525667,150
"29040001","29","LE CONQUET",48.368,-4.7545,33
"29041002","29","CORAY CHAT EAU",48.066,-3.8255,242
"29048003","29","EDERN",48.105333,-3.976667,150
"29058002","29","FOUESNANT",47.893333,-4.01,25
"29058003","29","BEG_MEIL",47.8545,-3.976167,8
"29067001","29","GUERLESQUIN",48.519167,-3.596167,244
"29075001","29","BREST-GUIPAVAS",48.453833,-4.391167,92
"29075002","29","GUIPAVAS",48.435,-4.391667,102
"29082001","29","BATZ",48.746333,-4.011833,32
"29101001","29","LANDEDA",48.6,-4.566667,38
"29113001","29","LANMEUR",48.6625,-3.692667,57
"29120001","29","LANVEOC",48.279333,-4.439333,81
"29122001","29","LAZ",48.136,-3.8265,235
"29146001","29","MELGVEN",47.8975,-3.812333,83
"29151001","29","MORLAIX",48.612,-3.8245,55
"29155001","29","CREACH",48.459167,-5.130333,30
"29155005","29","OUESSANT-STIFF",48.473333,-5.057,64
"29155009","29","STIFF",48.473667,-5.056667,65
"29156001","29","PENCRAN",48.441,-4.232167,146
"29158001","29","PTE DE PENMARCH",47.7975,-4.374833,3
"29163003","29","PLEYBER-CHRIST SA",48.5,-3.8535,147
"29168001","29","PTE DU RAZ",48.038833,-4.732,67
"29170001","29","PLOMELIN-INRAE",47.946,-4.128,33
"29178001","29","PLOUDALMEZEAU",48.548,-4.664167,40
"29179001","29","PLOUDANIEL-INRAE",48.503833,-4.327667,76
"29190001","29","PLOUGONVELIN",48.33,-4.771667,22
